{"type":"FeatureCollection","features":[{"type":"Feature","properties":{"municipio":"87c6339c-b538-44ce-8413-8cd7265af93a","title":"AC - RIO BRANCO","tipo":"FGV","url":"\/dashboard\/details-assets\/87c6339c-b538-44ce-8413-8cd7265af93a"},"geometry":{"type":"Point","coordinates":[-67.829853,-9.973437]}},{"type":"Feature","properties":{"municipio":"a33c27c4-09a3-40b1-93f9-e600eab0bdac","title":"TO - PALMAS","tipo":"FGV","url":"\/dashboard\/details-assets\/a33c27c4-09a3-40b1-93f9-e600eab0bdac"},"geometry":{"type":"Point","coordinates":[-48.317036,-10.230299]}},{"type":"Feature","properties":{"municipio":"2159350b-4e4e-43fd-99f7-81a0d9fb2412","title":"TO - GURUPI","tipo":"FGV","url":"\/dashboard\/details-assets\/2159350b-4e4e-43fd-99f7-81a0d9fb2412"},"geometry":{"type":"Point","coordinates":[-49.120839,-11.735005]}},{"type":"Feature","properties":{"municipio":"3cbf0d48-754b-4f6c-a8b5-3c0f5d26eeba","title":"TO - PORTO NACIONAL","tipo":"FGV","url":"\/dashboard\/details-assets\/3cbf0d48-754b-4f6c-a8b5-3c0f5d26eeba"},"geometry":{"type":"Point","coordinates":[-48.408486,-10.703164]}},{"type":"Feature","properties":{"municipio":"3ebb46e2-a84c-4780-94b8-6d97215701a9","title":"TO - ARAGUAINA","tipo":"FGV","url":"\/dashboard\/details-assets\/3ebb46e2-a84c-4780-94b8-6d97215701a9"},"geometry":{"type":"Point","coordinates":[-48.287407,-7.210941]}},{"type":"Feature","properties":{"municipio":"74064001-1414-4bd8-9db4-11b2e805e7f8","title":"SP - VOTUPORANGA","tipo":"FGV","url":"\/dashboard\/details-assets\/74064001-1414-4bd8-9db4-11b2e805e7f8"},"geometry":{"type":"Point","coordinates":[-49.970325,-20.417194]}},{"type":"Feature","properties":{"municipio":"5500c1ee-39fa-4f1a-ae4c-a309b38ad74b","title":"SP - TAUBATE","tipo":"FGV","url":"\/dashboard\/details-assets\/5500c1ee-39fa-4f1a-ae4c-a309b38ad74b"},"geometry":{"type":"Point","coordinates":[-45.556609,-23.026555]}},{"type":"Feature","properties":{"municipio":"1116f273-5210-45e4-8749-27ed03bf661a","title":"SP - SOROCABA","tipo":"FGV","url":"\/dashboard\/details-assets\/1116f273-5210-45e4-8749-27ed03bf661a"},"geometry":{"type":"Point","coordinates":[-47.457853,-23.499323]}},{"type":"Feature","properties":{"municipio":"0bcf3668-f05b-4ff8-9d8a-8e3a12cfaf7b","title":"SP - SAO PAULO","tipo":"FGV","url":"\/dashboard\/details-assets\/0bcf3668-f05b-4ff8-9d8a-8e3a12cfaf7b"},"geometry":{"type":"Point","coordinates":[-46.570383,-23.567386]}},{"type":"Feature","properties":{"municipio":"a34304b8-9457-4600-bccf-b166fda30ea4","title":"SP - SAO JOSE DOS CAMPOS","tipo":"FGV","url":"\/dashboard\/details-assets\/a34304b8-9457-4600-bccf-b166fda30ea4"},"geometry":{"type":"Point","coordinates":[-45.899405,-23.23021]}},{"type":"Feature","properties":{"municipio":"4580ce3e-cf8b-4047-9af6-55a1dc53f365","title":"SP - SAO JOAO DA BOA VISTA","tipo":"FGV","url":"\/dashboard\/details-assets\/4580ce3e-cf8b-4047-9af6-55a1dc53f365"},"geometry":{"type":"Point","coordinates":[-46.796351,-21.972011]}},{"type":"Feature","properties":{"municipio":"04cb96df-cb25-4186-a0be-62a261c81916","title":"SP - SAO JOSE DO RIO PRETO","tipo":"FGV","url":"\/dashboard\/details-assets\/04cb96df-cb25-4186-a0be-62a261c81916"},"geometry":{"type":"Point","coordinates":[-49.376227,-20.811761]}},{"type":"Feature","properties":{"municipio":"a743263e-5f7f-42e4-9a3c-78644f7a8cc3","title":"SP - SAO CARLOS","tipo":"FGV","url":"\/dashboard\/details-assets\/a743263e-5f7f-42e4-9a3c-78644f7a8cc3"},"geometry":{"type":"Point","coordinates":[-53.017394,-27.078635]}},{"type":"Feature","properties":{"municipio":"e7458216-7100-41e8-bd87-9e3b61b25d8e","title":"SP - SAO CAETANO DO SUL","tipo":"FGV","url":"\/dashboard\/details-assets\/e7458216-7100-41e8-bd87-9e3b61b25d8e"},"geometry":{"type":"Point","coordinates":[-46.571515,-23.614705]}},{"type":"Feature","properties":{"municipio":"6f50377d-d560-4e4c-85d6-9fc48d8b861a","title":"SP - SANTOS","tipo":"FGV","url":"\/dashboard\/details-assets\/6f50377d-d560-4e4c-85d6-9fc48d8b861a"},"geometry":{"type":"Point","coordinates":[-46.331371,-23.933737]}},{"type":"Feature","properties":{"municipio":"19dd27d0-15fd-4d47-a429-106ecee2b2c8","title":"SP - SAO BERNARDO DO CAMPO","tipo":"FGV","url":"\/dashboard\/details-assets\/19dd27d0-15fd-4d47-a429-106ecee2b2c8"},"geometry":{"type":"Point","coordinates":[-46.550257,-23.710304]}},{"type":"Feature","properties":{"municipio":"7fbc3517-abbb-473d-8ce6-e68747dc044e","title":"SP - SANTO ANDRE","tipo":"FGV","url":"\/dashboard\/details-assets\/7fbc3517-abbb-473d-8ce6-e68747dc044e"},"geometry":{"type":"Point","coordinates":[-46.530874,-23.65751]}},{"type":"Feature","properties":{"municipio":"eb850855-a4af-4605-9e1e-80111194372e","title":"SP - RIO CLARO","tipo":"FGV","url":"\/dashboard\/details-assets\/eb850855-a4af-4605-9e1e-80111194372e"},"geometry":{"type":"Point","coordinates":[-47.563533,-22.412511]}},{"type":"Feature","properties":{"municipio":"05c8a21a-8037-4a0c-af5a-d3c9bdb49e2e","title":"SP - SANTA FE DO SUL","tipo":"FGV","url":"\/dashboard\/details-assets\/05c8a21a-8037-4a0c-af5a-d3c9bdb49e2e"},"geometry":{"type":"Point","coordinates":[-50.926777,-20.211693]}},{"type":"Feature","properties":{"municipio":"32191d7c-4bee-4bef-b06a-c4b807690b21","title":"SP - RIBEIRAO PRETO","tipo":"FGV","url":"\/dashboard\/details-assets\/32191d7c-4bee-4bef-b06a-c4b807690b21"},"geometry":{"type":"Point","coordinates":[-47.805476,-21.184834]}},{"type":"Feature","properties":{"municipio":"323155fe-11ee-44ea-b408-a14d926f7465","title":"SP - PRESIDENTE PRUDENTE","tipo":"FGV","url":"\/dashboard\/details-assets\/323155fe-11ee-44ea-b408-a14d926f7465"},"geometry":{"type":"Point","coordinates":[-51.386766,-22.122743]}},{"type":"Feature","properties":{"municipio":"ed22adbc-751a-4669-88f1-f278fb511452","title":"SP - PENAPOLIS","tipo":"FGV","url":"\/dashboard\/details-assets\/ed22adbc-751a-4669-88f1-f278fb511452"},"geometry":{"type":"Point","coordinates":[-50.073036,-21.418383]}},{"type":"Feature","properties":{"municipio":"a5210ffe-e460-44ed-b128-de9e1901ff3e","title":"SP - PIRACICABA","tipo":"FGV","url":"\/dashboard\/details-assets\/a5210ffe-e460-44ed-b128-de9e1901ff3e"},"geometry":{"type":"Point","coordinates":[-47.646846,-22.723722]}},{"type":"Feature","properties":{"municipio":"874adc21-b8b0-41ba-937e-b7919b793325","title":"SP - OSASCO","tipo":"FGV","url":"\/dashboard\/details-assets\/874adc21-b8b0-41ba-937e-b7919b793325"},"geometry":{"type":"Point","coordinates":[-46.78881,-23.533612]}},{"type":"Feature","properties":{"municipio":"d8ebd058-c725-40bd-80fb-513af48243e4","title":"SP - MOGI DAS CRUZES","tipo":"FGV","url":"\/dashboard\/details-assets\/d8ebd058-c725-40bd-80fb-513af48243e4"},"geometry":{"type":"Point","coordinates":[-46.19676,-23.522706]}},{"type":"Feature","properties":{"municipio":"7296a071-a423-4fe4-a308-2729d08f0d9a","title":"SP - MOGI GUACU","tipo":"FGV","url":"\/dashboard\/details-assets\/7296a071-a423-4fe4-a308-2729d08f0d9a"},"geometry":{"type":"Point","coordinates":[-46.944474,-22.36572]}},{"type":"Feature","properties":{"municipio":"eae84cb4-853e-483d-ab0a-86f1e82ba5c9","title":"SP - MAUA","tipo":"FGV","url":"\/dashboard\/details-assets\/eae84cb4-853e-483d-ab0a-86f1e82ba5c9"},"geometry":{"type":"Point","coordinates":[-46.461709,-23.668163]}},{"type":"Feature","properties":{"municipio":"bd29633b-631b-4652-8c8b-f96b609cd9f3","title":"SP - MARILIA","tipo":"FGV","url":"\/dashboard\/details-assets\/bd29633b-631b-4652-8c8b-f96b609cd9f3"},"geometry":{"type":"Point","coordinates":[-49.950529,-22.217585]}},{"type":"Feature","properties":{"municipio":"aa80ea2d-9768-49bd-821c-c32fadce5cd9","title":"SP - JUNDIAI","tipo":"FGV","url":"\/dashboard\/details-assets\/aa80ea2d-9768-49bd-821c-c32fadce5cd9"},"geometry":{"type":"Point","coordinates":[-46.885274,-23.187668]}},{"type":"Feature","properties":{"municipio":"66fc8ebf-9444-467a-9eff-97a00c334b00","title":"SP - JAU","tipo":"FGV","url":"\/dashboard\/details-assets\/66fc8ebf-9444-467a-9eff-97a00c334b00"},"geometry":{"type":"Point","coordinates":[-48.558141,-22.295791]}},{"type":"Feature","properties":{"municipio":"8f18da9b-6cf9-4cef-a63b-9e1f33d5d9bf","title":"SP - JAGUARIUNA","tipo":"FGV","url":"\/dashboard\/details-assets\/8f18da9b-6cf9-4cef-a63b-9e1f33d5d9bf"},"geometry":{"type":"Point","coordinates":[-46.982343,-22.706782]}},{"type":"Feature","properties":{"municipio":"dddd5484-3e68-4f3f-aae5-bed9d4d4bae4","title":"SP - INDAIATUBA","tipo":"FGV","url":"\/dashboard\/details-assets\/dddd5484-3e68-4f3f-aae5-bed9d4d4bae4"},"geometry":{"type":"Point","coordinates":[-47.212309,-23.081646]}},{"type":"Feature","properties":{"municipio":"aa831179-d77b-4927-afbd-f709481742f6","title":"SP - GUARULHOS","tipo":"FGV","url":"\/dashboard\/details-assets\/aa831179-d77b-4927-afbd-f709481742f6"},"geometry":{"type":"Point","coordinates":[-46.531084,-23.468506]}},{"type":"Feature","properties":{"municipio":"5fd4e0dd-157e-43f9-aca9-224504fbf772","title":"SP - GUARUJA","tipo":"FGV","url":"\/dashboard\/details-assets\/5fd4e0dd-157e-43f9-aca9-224504fbf772"},"geometry":{"type":"Point","coordinates":[-46.249034,-23.995149]}},{"type":"Feature","properties":{"municipio":"ab71ccbc-5332-4f4b-b235-a842ecf267b1","title":"SP - FRANCA","tipo":"FGV","url":"\/dashboard\/details-assets\/ab71ccbc-5332-4f4b-b235-a842ecf267b1"},"geometry":{"type":"Point","coordinates":[-47.402332,-20.536097]}},{"type":"Feature","properties":{"municipio":"bf96aa37-776a-4e50-8944-17b6a57f41f3","title":"SP - FERNANDOPOLIS","tipo":"FGV","url":"\/dashboard\/details-assets\/bf96aa37-776a-4e50-8944-17b6a57f41f3"},"geometry":{"type":"Point","coordinates":[-50.248748,-20.282383]}},{"type":"Feature","properties":{"municipio":"24367f2a-17bd-4090-88c8-f8eb719a2e59","title":"SP - DRACENA","tipo":"FGV","url":"\/dashboard\/details-assets\/24367f2a-17bd-4090-88c8-f8eb719a2e59"},"geometry":{"type":"Point","coordinates":[-51.53405,-21.486138]}},{"type":"Feature","properties":{"municipio":"1534d6de-42e4-4b25-8467-e2c13b3171ae","title":"SP - CATANDUVA","tipo":"FGV","url":"\/dashboard\/details-assets\/1534d6de-42e4-4b25-8467-e2c13b3171ae"},"geometry":{"type":"Point","coordinates":[-48.975871,-21.139538]}},{"type":"Feature","properties":{"municipio":"8f826c2f-046a-4a65-8311-71ac75fcb091","title":"SP - CUBATAO","tipo":"FGV","url":"\/dashboard\/details-assets\/8f826c2f-046a-4a65-8311-71ac75fcb091"},"geometry":{"type":"Point","coordinates":[-46.420032,-23.883839]}},{"type":"Feature","properties":{"municipio":"833eb031-01fd-4c42-968a-9fc9f079a57a","title":"SP - CAMPINAS","tipo":"FGV","url":"\/dashboard\/details-assets\/833eb031-01fd-4c42-968a-9fc9f079a57a"},"geometry":{"type":"Point","coordinates":[-47.060156,-22.907342]}},{"type":"Feature","properties":{"municipio":"0ac7c17d-69e6-47db-aed9-02d3f2e959cb","title":"SP - BOTUCATU","tipo":"FGV","url":"\/dashboard\/details-assets\/0ac7c17d-69e6-47db-aed9-02d3f2e959cb"},"geometry":{"type":"Point","coordinates":[-48.441289,-22.888381]}},{"type":"Feature","properties":{"municipio":"fa74e01e-5b3d-4ed9-b375-f92a3e5c57ae","title":"SP - BRAGANCA PAULISTA","tipo":"FGV","url":"\/dashboard\/details-assets\/fa74e01e-5b3d-4ed9-b375-f92a3e5c57ae"},"geometry":{"type":"Point","coordinates":[-46.542333,-22.956895]}},{"type":"Feature","properties":{"municipio":"73243fda-1adf-487d-91d5-9b124fe99e65","title":"SP - BAURU","tipo":"FGV","url":"\/dashboard\/details-assets\/73243fda-1adf-487d-91d5-9b124fe99e65"},"geometry":{"type":"Point","coordinates":[-49.083001,-22.325122]}},{"type":"Feature","properties":{"municipio":"4b80004d-7548-48a9-9b94-9ad3c040b2df","title":"SP - ARARAS","tipo":"FGV","url":"\/dashboard\/details-assets\/4b80004d-7548-48a9-9b94-9ad3c040b2df"},"geometry":{"type":"Point","coordinates":[-47.38583,-22.357087]}},{"type":"Feature","properties":{"municipio":"9c2276a6-c923-48f1-af0e-19f03aa7eb17","title":"SP - BARRETOS","tipo":"FGV","url":"\/dashboard\/details-assets\/9c2276a6-c923-48f1-af0e-19f03aa7eb17"},"geometry":{"type":"Point","coordinates":[-48.567378,-20.558456]}},{"type":"Feature","properties":{"municipio":"fde0b787-68dd-403a-8884-fa4d9bfd0fdc","title":"SP - ARARAQUARA","tipo":"FGV","url":"\/dashboard\/details-assets\/fde0b787-68dd-403a-8884-fa4d9bfd0fdc"},"geometry":{"type":"Point","coordinates":[-48.17444,-21.790359]}},{"type":"Feature","properties":{"municipio":"3f3042ba-7540-49ad-8a05-d034b3d0fb24","title":"SP - ARACATUBA","tipo":"FGV","url":"\/dashboard\/details-assets\/3f3042ba-7540-49ad-8a05-d034b3d0fb24"},"geometry":{"type":"Point","coordinates":[-50.439226,-21.205476]}},{"type":"Feature","properties":{"municipio":"7af1117c-9bf9-4bef-a570-54c81d40fe3f","title":"SE - LAGARTO","tipo":"FGV","url":"\/dashboard\/details-assets\/7af1117c-9bf9-4bef-a570-54c81d40fe3f"},"geometry":{"type":"Point","coordinates":[-37.666353,-10.915301]}},{"type":"Feature","properties":{"municipio":"444defc5-240f-4ecc-a216-d950d184bf13","title":"SP - ADAMANTINA","tipo":"FGV","url":"\/dashboard\/details-assets\/444defc5-240f-4ecc-a216-d950d184bf13"},"geometry":{"type":"Point","coordinates":[-51.102504,-21.685058]}},{"type":"Feature","properties":{"municipio":"6d30f524-7d11-4d3f-9aff-62d2d55b80e7","title":"SE - ESTANCIA","tipo":"FGV","url":"\/dashboard\/details-assets\/6d30f524-7d11-4d3f-9aff-62d2d55b80e7"},"geometry":{"type":"Point","coordinates":[-37.440011,-11.267949]}},{"type":"Feature","properties":{"municipio":"cb660f7c-74bd-42b6-81d3-b13fc11d9fc1","title":"SE - ARACAJU","tipo":"FGV","url":"\/dashboard\/details-assets\/cb660f7c-74bd-42b6-81d3-b13fc11d9fc1"},"geometry":{"type":"Point","coordinates":[-37.073082,-10.947247]}},{"type":"Feature","properties":{"municipio":"546aa9a1-07cc-4f69-9ec7-ed243aed7196","title":"SC - RIO DO SUL","tipo":"FGV","url":"\/dashboard\/details-assets\/546aa9a1-07cc-4f69-9ec7-ed243aed7196"},"geometry":{"type":"Point","coordinates":[-49.643238,-27.217903]}},{"type":"Feature","properties":{"municipio":"9c3f88dd-8444-47c7-80ac-a79bb40d51dd","title":"SC - TUBARAO","tipo":"FGV","url":"\/dashboard\/details-assets\/9c3f88dd-8444-47c7-80ac-a79bb40d51dd"},"geometry":{"type":"Point","coordinates":[-49.005268,-28.480034]}},{"type":"Feature","properties":{"municipio":"771f1b81-936c-4136-bbf5-bb6b25c2d328","title":"SC - PALHOCA","tipo":"FGV","url":"\/dashboard\/details-assets\/771f1b81-936c-4136-bbf5-bb6b25c2d328"},"geometry":{"type":"Point","coordinates":[-48.670288,-27.647044]}},{"type":"Feature","properties":{"municipio":"bd4bb422-05b3-4743-ab8c-9e18126664c8","title":"SC - LAGES","tipo":"FGV","url":"\/dashboard\/details-assets\/bd4bb422-05b3-4743-ab8c-9e18126664c8"},"geometry":{"type":"Point","coordinates":[-50.330222,-27.817259]}},{"type":"Feature","properties":{"municipio":"14c4f115-422c-46a7-8377-19d3aaa512d8","title":"SC - MAFRA","tipo":"FGV","url":"\/dashboard\/details-assets\/14c4f115-422c-46a7-8377-19d3aaa512d8"},"geometry":{"type":"Point","coordinates":[-49.801038,-26.115228]}},{"type":"Feature","properties":{"municipio":"b875a93d-5f98-457c-bc22-d9318f24a2d7","title":"SC - JOINVILLE","tipo":"FGV","url":"\/dashboard\/details-assets\/b875a93d-5f98-457c-bc22-d9318f24a2d7"},"geometry":{"type":"Point","coordinates":[-48.849409,-26.304518]}},{"type":"Feature","properties":{"municipio":"a92b5246-f8e7-4024-8fd4-2e643fccf461","title":"SC - JARAGUA DO SUL","tipo":"FGV","url":"\/dashboard\/details-assets\/a92b5246-f8e7-4024-8fd4-2e643fccf461"},"geometry":{"type":"Point","coordinates":[-49.076299,-26.490484]}},{"type":"Feature","properties":{"municipio":"3870e58d-e6d6-4b5c-bafe-fb4d710bed47","title":"SC - JOACABA","tipo":"FGV","url":"\/dashboard\/details-assets\/3870e58d-e6d6-4b5c-bafe-fb4d710bed47"},"geometry":{"type":"Point","coordinates":[-51.50669,-27.173945]}},{"type":"Feature","properties":{"municipio":"34729a7d-3ec5-4654-a628-84e4da1c6d36","title":"SC - ITAJAI","tipo":"FGV","url":"\/dashboard\/details-assets\/34729a7d-3ec5-4654-a628-84e4da1c6d36"},"geometry":{"type":"Point","coordinates":[-48.670913,-26.910705]}},{"type":"Feature","properties":{"municipio":"558548d2-9c73-467e-9a9e-029e6d065937","title":"SC - FLORIANOPOLIS","tipo":"FGV","url":"\/dashboard\/details-assets\/558548d2-9c73-467e-9a9e-029e6d065937"},"geometry":{"type":"Point","coordinates":[-48.547637,-27.587796]}},{"type":"Feature","properties":{"municipio":"5543e66d-fd9f-476a-8e96-db9b87dcfe7d","title":"SC - CRICIUMA","tipo":"FGV","url":"\/dashboard\/details-assets\/5543e66d-fd9f-476a-8e96-db9b87dcfe7d"},"geometry":{"type":"Point","coordinates":[-49.36594,-28.673572]}},{"type":"Feature","properties":{"municipio":"3cfdb6b9-b0f2-479b-a4b5-bbc54bf5790c","title":"SC - CHAPECO","tipo":"FGV","url":"\/dashboard\/details-assets\/3cfdb6b9-b0f2-479b-a4b5-bbc54bf5790c"},"geometry":{"type":"Point","coordinates":[-52.615699,-27.100934]}},{"type":"Feature","properties":{"municipio":"bccca87c-657e-436b-86e8-1a877b2ca9bb","title":"SC - CACADOR","tipo":"FGV","url":"\/dashboard\/details-assets\/bccca87c-657e-436b-86e8-1a877b2ca9bb"},"geometry":{"type":"Point","coordinates":[-51.019035,-26.775348]}},{"type":"Feature","properties":{"municipio":"3b44b14a-ea56-4ab1-9918-151c93f22a23","title":"SC - BLUMENAU","tipo":"FGV","url":"\/dashboard\/details-assets\/3b44b14a-ea56-4ab1-9918-151c93f22a23"},"geometry":{"type":"Point","coordinates":[-49.057631,-26.916108]}},{"type":"Feature","properties":{"municipio":"c69bc63a-d27d-4f3d-80a0-bcc27d3457d6","title":"SC - BRUSQUE","tipo":"FGV","url":"\/dashboard\/details-assets\/c69bc63a-d27d-4f3d-80a0-bcc27d3457d6"},"geometry":{"type":"Point","coordinates":[-48.915163,-27.09831]}},{"type":"Feature","properties":{"municipio":"0a3ebfb8-ebc2-4ee2-9bdf-3bdba8948ca8","title":"SC - ARARANGUA","tipo":"FGV","url":"\/dashboard\/details-assets\/0a3ebfb8-ebc2-4ee2-9bdf-3bdba8948ca8"},"geometry":{"type":"Point","coordinates":[-49.492301,-28.936119]}},{"type":"Feature","properties":{"municipio":"3996d946-1781-415d-a994-56c0bf2a7d1d","title":"RS - SAO LEOPOLDO","tipo":"FGV","url":"\/dashboard\/details-assets\/3996d946-1781-415d-a994-56c0bf2a7d1d"},"geometry":{"type":"Point","coordinates":[-51.146235,-29.765867]}},{"type":"Feature","properties":{"municipio":"710c3742-ba50-4fe9-8908-bdd7ecd52867","title":"RS - URUGUAIANA","tipo":"FGV","url":"\/dashboard\/details-assets\/710c3742-ba50-4fe9-8908-bdd7ecd52867"},"geometry":{"type":"Point","coordinates":[-57.085843,-29.761912]}},{"type":"Feature","properties":{"municipio":"4bdbe845-a723-44ed-bdd5-164b5687accc","title":"RS - SANTA MARIA","tipo":"FGV","url":"\/dashboard\/details-assets\/4bdbe845-a723-44ed-bdd5-164b5687accc"},"geometry":{"type":"Point","coordinates":[-53.809876,-29.690439]}},{"type":"Feature","properties":{"municipio":"8c6117b3-4ee2-4300-bf6c-b0276671b9ce","title":"RS - SANTA CRUZ DO SUL","tipo":"FGV","url":"\/dashboard\/details-assets\/8c6117b3-4ee2-4300-bf6c-b0276671b9ce"},"geometry":{"type":"Point","coordinates":[-52.434838,-29.722516]}},{"type":"Feature","properties":{"municipio":"e12cbbed-8a19-4bc1-b4ab-197c3216db82","title":"RS - RIO GRANDE","tipo":"FGV","url":"\/dashboard\/details-assets\/e12cbbed-8a19-4bc1-b4ab-197c3216db82"},"geometry":{"type":"Point","coordinates":[-52.08677,-32.050446]}},{"type":"Feature","properties":{"municipio":"6248ab94-1975-44ce-b74d-09eae8ee0b5f","title":"RS - PORTO ALEGRE","tipo":"FGV","url":"\/dashboard\/details-assets\/6248ab94-1975-44ce-b74d-09eae8ee0b5f"},"geometry":{"type":"Point","coordinates":[-51.217658,-30.034647]}},{"type":"Feature","properties":{"municipio":"a33079a3-0cac-4e13-82d4-1d0717437db4","title":"RS - PELOTAS","tipo":"FGV","url":"\/dashboard\/details-assets\/a33079a3-0cac-4e13-82d4-1d0717437db4"},"geometry":{"type":"Point","coordinates":[-52.34432,-31.749965]}},{"type":"Feature","properties":{"municipio":"aa5aaa02-3661-4c19-b9ae-6d99511bab1a","title":"RS - NOVO HAMBURGO","tipo":"FGV","url":"\/dashboard\/details-assets\/aa5aaa02-3661-4c19-b9ae-6d99511bab1a"},"geometry":{"type":"Point","coordinates":[-51.12557,-29.691899]}},{"type":"Feature","properties":{"municipio":"860e9138-2fd3-4a59-8f3d-3f91af6da99d","title":"RS - PASSO FUNDO","tipo":"FGV","url":"\/dashboard\/details-assets\/860e9138-2fd3-4a59-8f3d-3f91af6da99d"},"geometry":{"type":"Point","coordinates":[-52.407095,-28.261767]}},{"type":"Feature","properties":{"municipio":"a5813ea7-c89a-4a1f-a19d-589b1af4065c","title":"RS - LAJEADO","tipo":"FGV","url":"\/dashboard\/details-assets\/a5813ea7-c89a-4a1f-a19d-589b1af4065c"},"geometry":{"type":"Point","coordinates":[-51.967828,-29.465454]}},{"type":"Feature","properties":{"municipio":"95490860-8dce-4eb4-908d-db082c5902db","title":"RS - ERECHIM","tipo":"FGV","url":"\/dashboard\/details-assets\/95490860-8dce-4eb4-908d-db082c5902db"},"geometry":{"type":"Point","coordinates":[-52.275877,-27.633406]}},{"type":"Feature","properties":{"municipio":"7e188157-1381-4c36-bb47-1fab59e36547","title":"RS - IJUI","tipo":"FGV","url":"\/dashboard\/details-assets\/7e188157-1381-4c36-bb47-1fab59e36547"},"geometry":{"type":"Point","coordinates":[-53.918067,-28.388537]}},{"type":"Feature","properties":{"municipio":"a749057e-200e-4271-804d-3bb33a534ad1","title":"RS - CAXIAS DO SUL","tipo":"FGV","url":"\/dashboard\/details-assets\/a749057e-200e-4271-804d-3bb33a534ad1"},"geometry":{"type":"Point","coordinates":[-51.17886,-29.166899]}},{"type":"Feature","properties":{"municipio":"761a97a6-6a9d-4020-82bd-aaf586a1ae48","title":"RS - CANOAS","tipo":"FGV","url":"\/dashboard\/details-assets\/761a97a6-6a9d-4020-82bd-aaf586a1ae48"},"geometry":{"type":"Point","coordinates":[-51.18103,-29.918697]}},{"type":"Feature","properties":{"municipio":"bf8ff376-3828-4af4-8151-069002880e7e","title":"RO - VILHENA","tipo":"FGV","url":"\/dashboard\/details-assets\/bf8ff376-3828-4af4-8151-069002880e7e"},"geometry":{"type":"Point","coordinates":[-60.138584,-12.741373]}},{"type":"Feature","properties":{"municipio":"fbdb175b-5528-4ee3-b19f-ea6c42238ad0","title":"RR - BOA VISTA","tipo":"FGV","url":"\/dashboard\/details-assets\/fbdb175b-5528-4ee3-b19f-ea6c42238ad0"},"geometry":{"type":"Point","coordinates":[-60.670533,2.816682]}},{"type":"Feature","properties":{"municipio":"80ff5fed-3f5b-45f5-8803-2afc7abbd039","title":"RO - PORTO VELHO","tipo":"FGV","url":"\/dashboard\/details-assets\/80ff5fed-3f5b-45f5-8803-2afc7abbd039"},"geometry":{"type":"Point","coordinates":[-63.831446,-8.768892]}},{"type":"Feature","properties":{"municipio":"062d25c4-e197-40b2-b94b-18e18783437e","title":"RN - NATAL","tipo":"FGV","url":"\/dashboard\/details-assets\/062d25c4-e197-40b2-b94b-18e18783437e"},"geometry":{"type":"Point","coordinates":[-35.215863,-5.79872]}},{"type":"Feature","properties":{"municipio":"6908e85d-aa75-430c-bc30-57fbd44ff168","title":"RO - CACOAL","tipo":"FGV","url":"\/dashboard\/details-assets\/6908e85d-aa75-430c-bc30-57fbd44ff168"},"geometry":{"type":"Point","coordinates":[-61.442944,-11.433865]}},{"type":"Feature","properties":{"municipio":"851a514a-a3e4-4b68-a903-52b6234ded41","title":"RN - MOSSORO","tipo":"FGV","url":"\/dashboard\/details-assets\/851a514a-a3e4-4b68-a903-52b6234ded41"},"geometry":{"type":"Point","coordinates":[-37.356874,-5.193801]}},{"type":"Feature","properties":{"municipio":"2f1d0746-c191-426f-afd1-b030cb3031eb","title":"RN - CAICO","tipo":"FGV","url":"\/dashboard\/details-assets\/2f1d0746-c191-426f-afd1-b030cb3031eb"},"geometry":{"type":"Point","coordinates":[-37.096489,-6.459139]}},{"type":"Feature","properties":{"municipio":"aad1a7d8-eb70-4c66-b064-1f0a0f4d5a95","title":"RJ - VOLTA REDONDA","tipo":"FGV","url":"\/dashboard\/details-assets\/aad1a7d8-eb70-4c66-b064-1f0a0f4d5a95"},"geometry":{"type":"Point","coordinates":[-44.09473,-22.50776]}},{"type":"Feature","properties":{"municipio":"f56d64d3-1a00-465e-935a-01096a7d75f6","title":"RJ - VASSOURAS","tipo":"FGV","url":"\/dashboard\/details-assets\/f56d64d3-1a00-465e-935a-01096a7d75f6"},"geometry":{"type":"Point","coordinates":[-43.704844,-22.409008]}},{"type":"Feature","properties":{"municipio":"86b10399-f19a-415c-a712-6d47fa20835e","title":"RJ - VALENCA","tipo":"FGV","url":"\/dashboard\/details-assets\/86b10399-f19a-415c-a712-6d47fa20835e"},"geometry":{"type":"Point","coordinates":[-43.706895,-22.245915]}},{"type":"Feature","properties":{"municipio":"17929ff3-82a5-4a3c-a7de-e0682d5056e8","title":"RJ - TRES RIOS","tipo":"FGV","url":"\/dashboard\/details-assets\/17929ff3-82a5-4a3c-a7de-e0682d5056e8"},"geometry":{"type":"Point","coordinates":[-43.218947,-22.117006]}},{"type":"Feature","properties":{"municipio":"eb7dda5a-0e7b-4e6b-8aa6-fb5c2b4079c5","title":"RJ - TERESOPOLIS","tipo":"FGV","url":"\/dashboard\/details-assets\/eb7dda5a-0e7b-4e6b-8aa6-fb5c2b4079c5"},"geometry":{"type":"Point","coordinates":[-42.975619,-22.416956]}},{"type":"Feature","properties":{"municipio":"064aa49c-253f-4899-a8ce-b205f79606ce","title":"RJ - RIO DE JANEIRO","tipo":"FGV","url":"\/dashboard\/details-assets\/064aa49c-253f-4899-a8ce-b205f79606ce"},"geometry":{"type":"Point","coordinates":[-43.209229,-22.916026]}},{"type":"Feature","properties":{"municipio":"c0f105f5-5ebc-4afb-81ff-2825e0a6fa57","title":"RJ - PETROPOLIS","tipo":"FGV","url":"\/dashboard\/details-assets\/c0f105f5-5ebc-4afb-81ff-2825e0a6fa57"},"geometry":{"type":"Point","coordinates":[-43.177914,-22.511264]}},{"type":"Feature","properties":{"municipio":"2f065651-d046-4fa2-b770-4244cac0f3de","title":"RJ - NOVA IGUACU","tipo":"FGV","url":"\/dashboard\/details-assets\/2f065651-d046-4fa2-b770-4244cac0f3de"},"geometry":{"type":"Point","coordinates":[-43.460742,-22.756132]}},{"type":"Feature","properties":{"municipio":"09a19537-97e6-4700-934d-033028d93e42","title":"RJ - MACAE","tipo":"FGV","url":"\/dashboard\/details-assets\/09a19537-97e6-4700-934d-033028d93e42"},"geometry":{"type":"Point","coordinates":[-41.782789,-22.38369]}},{"type":"Feature","properties":{"municipio":"9591a704-ec4a-4650-9e69-395668307771","title":"RJ - NITEROI","tipo":"FGV","url":"\/dashboard\/details-assets\/9591a704-ec4a-4650-9e69-395668307771"},"geometry":{"type":"Point","coordinates":[-43.115221,-22.885898]}},{"type":"Feature","properties":{"municipio":"493f9754-fc6e-45ec-8104-cdc15c4dc204","title":"RJ - ITAPERUNA","tipo":"FGV","url":"\/dashboard\/details-assets\/493f9754-fc6e-45ec-8104-cdc15c4dc204"},"geometry":{"type":"Point","coordinates":[-41.880233,-21.200081]}},{"type":"Feature","properties":{"municipio":"cc6887c8-c498-4c56-a09c-82172eebd620","title":"RJ - CAMPOS DOS GOYTACAZES","tipo":"FGV","url":"\/dashboard\/details-assets\/cc6887c8-c498-4c56-a09c-82172eebd620"},"geometry":{"type":"Point","coordinates":[-41.318488,-21.76269]}},{"type":"Feature","properties":{"municipio":"053356fb-8739-482b-9616-73465b271508","title":"RJ - DUQUE DE CAXIAS","tipo":"FGV","url":"\/dashboard\/details-assets\/053356fb-8739-482b-9616-73465b271508"},"geometry":{"type":"Point","coordinates":[-43.305311,-22.786299]}},{"type":"Feature","properties":{"municipio":"e5374e8b-c8bf-4f54-83e9-87da0e9c1d79","title":"RJ - BOM JESUS DO ITABAPOANA","tipo":"FGV","url":"\/dashboard\/details-assets\/e5374e8b-c8bf-4f54-83e9-87da0e9c1d79"},"geometry":{"type":"Point","coordinates":[-41.740739,-21.133006]}},{"type":"Feature","properties":{"municipio":"a33221d3-6ebf-44f6-9199-bb2707e66e55","title":"RJ - ANGRA DOS REIS","tipo":"FGV","url":"\/dashboard\/details-assets\/a33221d3-6ebf-44f6-9199-bb2707e66e55"},"geometry":{"type":"Point","coordinates":[-44.315791,-23.005804]}},{"type":"Feature","properties":{"municipio":"52792bd8-3110-42d6-adef-97d6e9f6a678","title":"PR - UMUARAMA","tipo":"FGV","url":"\/dashboard\/details-assets\/52792bd8-3110-42d6-adef-97d6e9f6a678"},"geometry":{"type":"Point","coordinates":[-53.30846,-23.76395]}},{"type":"Feature","properties":{"municipio":"4d7ccb6e-a0f0-4a7d-a2c2-86fde85c4daa","title":"PR - TOLEDO","tipo":"FGV","url":"\/dashboard\/details-assets\/4d7ccb6e-a0f0-4a7d-a2c2-86fde85c4daa"},"geometry":{"type":"Point","coordinates":[-53.741411,-24.732077]}},{"type":"Feature","properties":{"municipio":"6c664849-9984-4857-8b2e-1bf36aabcab3","title":"PR - PONTA GROSSA","tipo":"FGV","url":"\/dashboard\/details-assets\/6c664849-9984-4857-8b2e-1bf36aabcab3"},"geometry":{"type":"Point","coordinates":[-50.161442,-25.092547]}},{"type":"Feature","properties":{"municipio":"c943d560-3f8a-4738-9b90-3bca3b4e2f69","title":"PR - PATO BRANCO","tipo":"FGV","url":"\/dashboard\/details-assets\/c943d560-3f8a-4738-9b90-3bca3b4e2f69"},"geometry":{"type":"Point","coordinates":[-52.677362,-26.229959]}},{"type":"Feature","properties":{"municipio":"2ae9bfea-5f20-437a-8f95-48b4baeb4099","title":"PR - MARINGA","tipo":"FGV","url":"\/dashboard\/details-assets\/2ae9bfea-5f20-437a-8f95-48b4baeb4099"},"geometry":{"type":"Point","coordinates":[-51.939882,-23.42228]}},{"type":"Feature","properties":{"municipio":"fa2ecae0-f95b-4cdf-a95e-7151cb1691dc","title":"PR - LONDRINA","tipo":"FGV","url":"\/dashboard\/details-assets\/fa2ecae0-f95b-4cdf-a95e-7151cb1691dc"},"geometry":{"type":"Point","coordinates":[-51.162773,-23.312156]}},{"type":"Feature","properties":{"municipio":"b5b67846-4b0f-48c7-aafa-3ad874f35830","title":"PR - GUARAPUAVA","tipo":"FGV","url":"\/dashboard\/details-assets\/b5b67846-4b0f-48c7-aafa-3ad874f35830"},"geometry":{"type":"Point","coordinates":[-51.463431,-25.393592]}},{"type":"Feature","properties":{"municipio":"e5cdeb2d-c021-4ce4-8ca2-99ca07d7fa30","title":"PR - FOZ DO IGUACU","tipo":"FGV","url":"\/dashboard\/details-assets\/e5cdeb2d-c021-4ce4-8ca2-99ca07d7fa30"},"geometry":{"type":"Point","coordinates":[-54.587102,-25.542493]}},{"type":"Feature","properties":{"municipio":"20f884eb-31b2-4719-8ae2-c8193448bdda","title":"PR - FRANCISCO BELTRAO","tipo":"FGV","url":"\/dashboard\/details-assets\/20f884eb-31b2-4719-8ae2-c8193448bdda"},"geometry":{"type":"Point","coordinates":[-53.056136,-26.07845]}},{"type":"Feature","properties":{"municipio":"0099326c-9750-4483-be2f-a0d7034788cf","title":"PR - CURITIBA","tipo":"FGV","url":"\/dashboard\/details-assets\/0099326c-9750-4483-be2f-a0d7034788cf"},"geometry":{"type":"Point","coordinates":[-49.271848,-25.432956]}},{"type":"Feature","properties":{"municipio":"e0e5efad-f41f-4466-9056-ce2ed1e8aafc","title":"PR - CAMPO MOURAO","tipo":"FGV","url":"\/dashboard\/details-assets\/e0e5efad-f41f-4466-9056-ce2ed1e8aafc"},"geometry":{"type":"Point","coordinates":[-52.381115,-24.041223]}},{"type":"Feature","properties":{"municipio":"34868fe6-c966-4139-a2d3-6662b574c77b","title":"PR - CASCAVEL","tipo":"FGV","url":"\/dashboard\/details-assets\/34868fe6-c966-4139-a2d3-6662b574c77b"},"geometry":{"type":"Point","coordinates":[-53.459511,-24.957777]}},{"type":"Feature","properties":{"municipio":"aaf80312-a27e-4c51-a2dd-f6e3fd57ac8c","title":"PI - TERESINA","tipo":"FGV","url":"\/dashboard\/details-assets\/aaf80312-a27e-4c51-a2dd-f6e3fd57ac8c"},"geometry":{"type":"Point","coordinates":[-42.80527,-5.086342]}},{"type":"Feature","properties":{"municipio":"325bfb58-5c80-47ca-869e-7e8cea3ce1c3","title":"PI - PICOS","tipo":"FGV","url":"\/dashboard\/details-assets\/325bfb58-5c80-47ca-869e-7e8cea3ce1c3"},"geometry":{"type":"Point","coordinates":[-41.468827,-7.081374]}},{"type":"Feature","properties":{"municipio":"718c127d-44c4-447f-b25e-a2d59668d3f6","title":"PI - PARNAIBA","tipo":"FGV","url":"\/dashboard\/details-assets\/718c127d-44c4-447f-b25e-a2d59668d3f6"},"geometry":{"type":"Point","coordinates":[-41.778171,-2.90336]}},{"type":"Feature","properties":{"municipio":"e9664c16-2751-4054-b841-5cb2b81d9fda","title":"PE - SERRA TALHADA","tipo":"FGV","url":"\/dashboard\/details-assets\/e9664c16-2751-4054-b841-5cb2b81d9fda"},"geometry":{"type":"Point","coordinates":[-38.296315,-7.987998]}},{"type":"Feature","properties":{"municipio":"30c72635-0615-4302-b517-08ca8ce40456","title":"PE - RECIFE","tipo":"FGV","url":"\/dashboard\/details-assets\/30c72635-0615-4302-b517-08ca8ce40456"},"geometry":{"type":"Point","coordinates":[-34.888942,-8.062762]}},{"type":"Feature","properties":{"municipio":"26729468-af65-45ab-96f1-fce745ceefe7","title":"PE - PETROLINA","tipo":"FGV","url":"\/dashboard\/details-assets\/26729468-af65-45ab-96f1-fce745ceefe7"},"geometry":{"type":"Point","coordinates":[-40.499999,-9.397376]}},{"type":"Feature","properties":{"municipio":"37b89af9-18a4-4b1e-b0dc-0445bb2ab158","title":"PE - OLINDA","tipo":"FGV","url":"\/dashboard\/details-assets\/37b89af9-18a4-4b1e-b0dc-0445bb2ab158"},"geometry":{"type":"Point","coordinates":[-34.86131,-7.99266]}},{"type":"Feature","properties":{"municipio":"e11e4d17-170d-4f87-b4e7-7b93de688b16","title":"PE - JABOATAO DOS GUARARAPES","tipo":"FGV","url":"\/dashboard\/details-assets\/e11e4d17-170d-4f87-b4e7-7b93de688b16"},"geometry":{"type":"Point","coordinates":[-34.921173,-8.165391]}},{"type":"Feature","properties":{"municipio":"4598d5dc-2685-48fb-b072-8098ed3a0b1d","title":"PE - GARANHUNS","tipo":"FGV","url":"\/dashboard\/details-assets\/4598d5dc-2685-48fb-b072-8098ed3a0b1d"},"geometry":{"type":"Point","coordinates":[-36.49305,-8.888906]}},{"type":"Feature","properties":{"municipio":"55cb7663-981f-4a92-adce-3f3b13533d88","title":"PE - ARCOVERDE","tipo":"FGV","url":"\/dashboard\/details-assets\/55cb7663-981f-4a92-adce-3f3b13533d88"},"geometry":{"type":"Point","coordinates":[-37.056506,-8.42394]}},{"type":"Feature","properties":{"municipio":"8b41ea4f-7484-4b89-9b7b-b2ab5f790654","title":"PE - CARUARU","tipo":"FGV","url":"\/dashboard\/details-assets\/8b41ea4f-7484-4b89-9b7b-b2ab5f790654"},"geometry":{"type":"Point","coordinates":[-35.967073,-8.285898]}},{"type":"Feature","properties":{"municipio":"e769ca8f-cc6f-4833-a31c-892a2d1e3740","title":"PB - PATOS","tipo":"FGV","url":"\/dashboard\/details-assets\/e769ca8f-cc6f-4833-a31c-892a2d1e3740"},"geometry":{"type":"Point","coordinates":[-37.276913,-7.024492]}},{"type":"Feature","properties":{"municipio":"09d55c04-094a-4075-be6d-cc1edf2168fe","title":"PB - JOAO PESSOA","tipo":"FGV","url":"\/dashboard\/details-assets\/09d55c04-094a-4075-be6d-cc1edf2168fe"},"geometry":{"type":"Point","coordinates":[-34.873385,-7.149382]}},{"type":"Feature","properties":{"municipio":"157fd172-78eb-474f-9160-f79de9b4f090","title":"PB - CAMPINA GRANDE","tipo":"FGV","url":"\/dashboard\/details-assets\/157fd172-78eb-474f-9160-f79de9b4f090"},"geometry":{"type":"Point","coordinates":[-35.883859,-7.221497]}},{"type":"Feature","properties":{"municipio":"b645402c-411b-4e71-af22-7c56feac6277","title":"PB - CAJAZEIRAS","tipo":"FGV","url":"\/dashboard\/details-assets\/b645402c-411b-4e71-af22-7c56feac6277"},"geometry":{"type":"Point","coordinates":[-38.56053,-6.890464]}},{"type":"Feature","properties":{"municipio":"8b4e6295-a304-4b91-95f8-2cf2c601ba3c","title":"PA - SANTAREM","tipo":"FGV","url":"\/dashboard\/details-assets\/8b4e6295-a304-4b91-95f8-2cf2c601ba3c"},"geometry":{"type":"Point","coordinates":[-54.71857,-2.436213]}},{"type":"Feature","properties":{"municipio":"9405c160-6d45-4312-9d71-81cb15a567c2","title":"PA - MARABA","tipo":"FGV","url":"\/dashboard\/details-assets\/9405c160-6d45-4312-9d71-81cb15a567c2"},"geometry":{"type":"Point","coordinates":[-49.142025,-5.352606]}},{"type":"Feature","properties":{"municipio":"25e18f97-3131-4ee2-b27b-d2da616e715f","title":"PA - REDENCAO","tipo":"FGV","url":"\/dashboard\/details-assets\/25e18f97-3131-4ee2-b27b-d2da616e715f"},"geometry":{"type":"Point","coordinates":[-50.029642,-8.027604]}},{"type":"Feature","properties":{"municipio":"21e89202-45f1-481d-93fa-79e1c5562ed6","title":"PA - BELEM","tipo":"FGV","url":"\/dashboard\/details-assets\/21e89202-45f1-481d-93fa-79e1c5562ed6"},"geometry":{"type":"Point","coordinates":[-48.487826,-1.459845]}},{"type":"Feature","properties":{"municipio":"a5445323-4d2c-4bd7-b37d-3f4d70642ae8","title":"PA - ALTAMIRA","tipo":"FGV","url":"\/dashboard\/details-assets\/a5445323-4d2c-4bd7-b37d-3f4d70642ae8"},"geometry":{"type":"Point","coordinates":[-52.214376,-3.20566]}},{"type":"Feature","properties":{"municipio":"8a64a6ba-9835-4e1a-8aa3-4e434784469e","title":"MT - VARZEA GRANDE","tipo":"FGV","url":"\/dashboard\/details-assets\/8a64a6ba-9835-4e1a-8aa3-4e434784469e"},"geometry":{"type":"Point","coordinates":[-56.144664,-15.658065]}},{"type":"Feature","properties":{"municipio":"9118c2a3-249c-438f-9343-857d09ebafbd","title":"MT - SINOP","tipo":"FGV","url":"\/dashboard\/details-assets\/9118c2a3-249c-438f-9343-857d09ebafbd"},"geometry":{"type":"Point","coordinates":[-55.500922,-11.858005]}},{"type":"Feature","properties":{"municipio":"f3bbf4da-cfa7-48ca-8ac4-d2fb25fa254a","title":"MT - RONDONOPOLIS","tipo":"FGV","url":"\/dashboard\/details-assets\/f3bbf4da-cfa7-48ca-8ac4-d2fb25fa254a"},"geometry":{"type":"Point","coordinates":[-54.633587,-16.470163]}},{"type":"Feature","properties":{"municipio":"08d31cde-b281-4f13-b9c3-d70fc13dc3ac","title":"MT - CUIABA","tipo":"FGV","url":"\/dashboard\/details-assets\/08d31cde-b281-4f13-b9c3-d70fc13dc3ac"},"geometry":{"type":"Point","coordinates":[-56.073252,-15.569989]}},{"type":"Feature","properties":{"municipio":"aa17be00-cbcc-4bb2-8aee-0d0d58ef4714","title":"MT - CACERES","tipo":"FGV","url":"\/dashboard\/details-assets\/aa17be00-cbcc-4bb2-8aee-0d0d58ef4714"},"geometry":{"type":"Point","coordinates":[-57.674762,-16.074096]}},{"type":"Feature","properties":{"municipio":"dba3181a-03b0-4c94-9c11-dd9ed11507f4","title":"MS - TRES LAGOAS","tipo":"FGV","url":"\/dashboard\/details-assets\/dba3181a-03b0-4c94-9c11-dd9ed11507f4"},"geometry":{"type":"Point","coordinates":[-51.710001,-20.788679]}},{"type":"Feature","properties":{"municipio":"6e93d61f-2331-465f-961b-998135674a06","title":"MS - DOURADOS","tipo":"FGV","url":"\/dashboard\/details-assets\/6e93d61f-2331-465f-961b-998135674a06"},"geometry":{"type":"Point","coordinates":[-54.811289,-22.227236]}},{"type":"Feature","properties":{"municipio":"46fe1c06-d6c3-43db-a615-6ee64d2de51b","title":"MS - CORUMBA","tipo":"FGV","url":"\/dashboard\/details-assets\/46fe1c06-d6c3-43db-a615-6ee64d2de51b"},"geometry":{"type":"Point","coordinates":[-57.648985,-19.006375]}},{"type":"Feature","properties":{"municipio":"4e494ad2-cd0f-4c9e-900b-659970317de4","title":"MS - CAMPO GRANDE","tipo":"FGV","url":"\/dashboard\/details-assets\/4e494ad2-cd0f-4c9e-900b-659970317de4"},"geometry":{"type":"Point","coordinates":[-54.615744,-20.45803]}},{"type":"Feature","properties":{"municipio":"fae56d90-96aa-4b58-81cf-a7c0ece1674b","title":"MG - VICOSA","tipo":"FGV","url":"\/dashboard\/details-assets\/fae56d90-96aa-4b58-81cf-a7c0ece1674b"},"geometry":{"type":"Point","coordinates":[-42.879477,-20.752072]}},{"type":"Feature","properties":{"municipio":"059c3009-5ffb-434b-aac0-3fedcae15290","title":"MG - VESPASIANO","tipo":"FGV","url":"\/dashboard\/details-assets\/059c3009-5ffb-434b-aac0-3fedcae15290"},"geometry":{"type":"Point","coordinates":[-43.919915,-19.69303]}},{"type":"Feature","properties":{"municipio":"db71c01f-d09e-4faf-93c5-4fb1e674bb07","title":"MG - UBERABA","tipo":"FGV","url":"\/dashboard\/details-assets\/db71c01f-d09e-4faf-93c5-4fb1e674bb07"},"geometry":{"type":"Point","coordinates":[-47.983625,-19.713535]}},{"type":"Feature","properties":{"municipio":"dbe4abe9-a711-4f66-9957-2ae3233e9551","title":"MG - UBERLANDIA","tipo":"FGV","url":"\/dashboard\/details-assets\/dbe4abe9-a711-4f66-9957-2ae3233e9551"},"geometry":{"type":"Point","coordinates":[-48.27795,-18.918999]}},{"type":"Feature","properties":{"municipio":"af0f5db5-e4b5-43a4-b80e-395192e1f9e5","title":"MG - UBA","tipo":"FGV","url":"\/dashboard\/details-assets\/af0f5db5-e4b5-43a4-b80e-395192e1f9e5"},"geometry":{"type":"Point","coordinates":[-42.936786,-21.118597]}},{"type":"Feature","properties":{"municipio":"9e88435c-68ce-464d-8c8e-adcf9fc247fb","title":"MG - TEOFILO OTONI","tipo":"FGV","url":"\/dashboard\/details-assets\/9e88435c-68ce-464d-8c8e-adcf9fc247fb"},"geometry":{"type":"Point","coordinates":[-41.509635,-17.86254]}},{"type":"Feature","properties":{"municipio":"620e8777-de4b-4968-8776-a02fc8685a8d","title":"MG - SAO JOAO DEL REI","tipo":"FGV","url":"\/dashboard\/details-assets\/620e8777-de4b-4968-8776-a02fc8685a8d"},"geometry":{"type":"Point","coordinates":[-44.260973,-21.135509]}},{"type":"Feature","properties":{"municipio":"d71b7a7b-da25-4a75-959b-3793af3be8d2","title":"MG - SETE LAGOAS","tipo":"FGV","url":"\/dashboard\/details-assets\/d71b7a7b-da25-4a75-959b-3793af3be8d2"},"geometry":{"type":"Point","coordinates":[-44.239595,-19.458287]}},{"type":"Feature","properties":{"municipio":"a2ab981e-4e9f-4f6f-be44-01c00c9b128d","title":"MG - POUSO ALEGRE","tipo":"FGV","url":"\/dashboard\/details-assets\/a2ab981e-4e9f-4f6f-be44-01c00c9b128d"},"geometry":{"type":"Point","coordinates":[-45.937144,-22.230303]}},{"type":"Feature","properties":{"municipio":"3126e939-5486-434b-9e0a-292929629fd3","title":"MG - PONTE NOVA","tipo":"FGV","url":"\/dashboard\/details-assets\/3126e939-5486-434b-9e0a-292929629fd3"},"geometry":{"type":"Point","coordinates":[-42.909684,-20.416643]}},{"type":"Feature","properties":{"municipio":"3c5cc28a-1b07-4e34-9bfa-4b4955d0c89d","title":"MG - PATOS DE MINAS","tipo":"FGV","url":"\/dashboard\/details-assets\/3c5cc28a-1b07-4e34-9bfa-4b4955d0c89d"},"geometry":{"type":"Point","coordinates":[-46.515916,-18.592571]}},{"type":"Feature","properties":{"municipio":"54f31230-5508-43d1-a719-7690bc60d12b","title":"MG - POCOS DE CALDAS","tipo":"FGV","url":"\/dashboard\/details-assets\/54f31230-5508-43d1-a719-7690bc60d12b"},"geometry":{"type":"Point","coordinates":[-46.56641,-21.787364]}},{"type":"Feature","properties":{"municipio":"707f023f-5923-478a-83f0-e8309c66ecb1","title":"MG - PASSOS","tipo":"FGV","url":"\/dashboard\/details-assets\/707f023f-5923-478a-83f0-e8309c66ecb1"},"geometry":{"type":"Point","coordinates":[-46.611413,-20.719212]}},{"type":"Feature","properties":{"municipio":"4fcb75b8-56e8-4335-aa3c-20a5429da870","title":"MG - OURO PRETO","tipo":"FGV","url":"\/dashboard\/details-assets\/4fcb75b8-56e8-4335-aa3c-20a5429da870"},"geometry":{"type":"Point","coordinates":[-43.506448,-20.386776]}},{"type":"Feature","properties":{"municipio":"4f401241-63c4-426c-b93f-a5e3f097ab99","title":"MG - PARACATU","tipo":"FGV","url":"\/dashboard\/details-assets\/4f401241-63c4-426c-b93f-a5e3f097ab99"},"geometry":{"type":"Point","coordinates":[-46.875419,-17.219742]}},{"type":"Feature","properties":{"municipio":"502cbeae-d3ab-4671-843a-8027b6d767d8","title":"MG - MURIAE","tipo":"FGV","url":"\/dashboard\/details-assets\/502cbeae-d3ab-4671-843a-8027b6d767d8"},"geometry":{"type":"Point","coordinates":[-42.361075,-21.132047]}},{"type":"Feature","properties":{"municipio":"69bdc91f-a9b6-4078-a5a8-60340a4bff4d","title":"MG - MONTES CLAROS","tipo":"FGV","url":"\/dashboard\/details-assets\/69bdc91f-a9b6-4078-a5a8-60340a4bff4d"},"geometry":{"type":"Point","coordinates":[-43.865422,-16.722707]}},{"type":"Feature","properties":{"municipio":"f902d93b-7b29-436e-ae70-a621c60c7a98","title":"MG - MATIPO","tipo":"FGV","url":"\/dashboard\/details-assets\/f902d93b-7b29-436e-ae70-a621c60c7a98"},"geometry":{"type":"Point","coordinates":[-42.3537723,-20.286627]}},{"type":"Feature","properties":{"municipio":"8ab31414-82ae-4904-bee6-2caaa9b00713","title":"MG - MANHUACU","tipo":"FGV","url":"\/dashboard\/details-assets\/8ab31414-82ae-4904-bee6-2caaa9b00713"},"geometry":{"type":"Point","coordinates":[-42.033848,-20.25868]}},{"type":"Feature","properties":{"municipio":"421e6cc7-2279-4d5c-89d0-8cbe7d8f8d17","title":"MG - LAVRAS","tipo":"FGV","url":"\/dashboard\/details-assets\/421e6cc7-2279-4d5c-89d0-8cbe7d8f8d17"},"geometry":{"type":"Point","coordinates":[-44.999931,-21.24287]}},{"type":"Feature","properties":{"municipio":"492ca495-38ef-4af0-b9b3-6685f058cf73","title":"MG - ITAUNA","tipo":"FGV","url":"\/dashboard\/details-assets\/492ca495-38ef-4af0-b9b3-6685f058cf73"},"geometry":{"type":"Point","coordinates":[-44.578277,-20.074436]}},{"type":"Feature","properties":{"municipio":"66d07f6c-df0d-4928-ba25-d1cf3ead7cab","title":"MG - JUIZ DE FORA","tipo":"FGV","url":"\/dashboard\/details-assets\/66d07f6c-df0d-4928-ba25-d1cf3ead7cab"},"geometry":{"type":"Point","coordinates":[-43.348817,-21.760924]}},{"type":"Feature","properties":{"municipio":"fbf8fe8c-d75f-49f9-9b81-4a8d6a3e143e","title":"MG - ITAJUBA","tipo":"FGV","url":"\/dashboard\/details-assets\/fbf8fe8c-d75f-49f9-9b81-4a8d6a3e143e"},"geometry":{"type":"Point","coordinates":[-45.464583,-22.430601]}},{"type":"Feature","properties":{"municipio":"7716e239-c7ca-4f39-b0f6-a3f16da9fe54","title":"MG - IPATINGA","tipo":"FGV","url":"\/dashboard\/details-assets\/7716e239-c7ca-4f39-b0f6-a3f16da9fe54"},"geometry":{"type":"Point","coordinates":[-42.520351,-19.481032]}},{"type":"Feature","properties":{"municipio":"2d9c2360-10fc-4d31-a8cf-93bbc701bac5","title":"MG - GOVERNADOR VALADARES","tipo":"FGV","url":"\/dashboard\/details-assets\/2d9c2360-10fc-4d31-a8cf-93bbc701bac5"},"geometry":{"type":"Point","coordinates":[-41.947081,-18.852882]}},{"type":"Feature","properties":{"municipio":"c2e014b8-6889-4452-8f1a-b31523533d5b","title":"MG - DIVINOPOLIS","tipo":"FGV","url":"\/dashboard\/details-assets\/c2e014b8-6889-4452-8f1a-b31523533d5b"},"geometry":{"type":"Point","coordinates":[-44.893886,-20.142074]}},{"type":"Feature","properties":{"municipio":"a835a599-2fce-4e45-8c0a-32a41f59aca7","title":"MG - CONTAGEM","tipo":"FGV","url":"\/dashboard\/details-assets\/a835a599-2fce-4e45-8c0a-32a41f59aca7"},"geometry":{"type":"Point","coordinates":[-44.066345,-19.943446]}},{"type":"Feature","properties":{"municipio":"94fe7619-0289-453a-8907-1bdf11097cfb","title":"MG - DIAMANTINA","tipo":"FGV","url":"\/dashboard\/details-assets\/94fe7619-0289-453a-8907-1bdf11097cfb"},"geometry":{"type":"Point","coordinates":[-43.594457,-18.242093]}},{"type":"Feature","properties":{"municipio":"402d8ae2-be90-43fb-ae7a-c22952c1b1aa","title":"MG - BETIM","tipo":"FGV","url":"\/dashboard\/details-assets\/402d8ae2-be90-43fb-ae7a-c22952c1b1aa"},"geometry":{"type":"Point","coordinates":[-44.197551,-19.965379]}},{"type":"Feature","properties":{"municipio":"833f97c6-a3e3-435c-a1c0-dcdf01c15147","title":"MG - BARBACENA","tipo":"FGV","url":"\/dashboard\/details-assets\/833f97c6-a3e3-435c-a1c0-dcdf01c15147"},"geometry":{"type":"Point","coordinates":[-43.776193,-21.224915]}},{"type":"Feature","properties":{"municipio":"895b6434-8479-4c79-9a87-cb7927a78139","title":"MG - BELO HORIZONTE","tipo":"FGV","url":"\/dashboard\/details-assets\/895b6434-8479-4c79-9a87-cb7927a78139"},"geometry":{"type":"Point","coordinates":[-43.926453,-19.937524]}},{"type":"Feature","properties":{"municipio":"ad4edb26-037e-4102-b587-3b5c84f21784","title":"MG - ARAGUARI","tipo":"FGV","url":"\/dashboard\/details-assets\/ad4edb26-037e-4102-b587-3b5c84f21784"},"geometry":{"type":"Point","coordinates":[-48.191605,-18.64827]}},{"type":"Feature","properties":{"municipio":"89d3e7ae-db61-4920-a97c-ee8345f8ef48","title":"MG - ALFENAS","tipo":"FGV","url":"\/dashboard\/details-assets\/89d3e7ae-db61-4920-a97c-ee8345f8ef48"},"geometry":{"type":"Point","coordinates":[-45.948918,-21.428178]}},{"type":"Feature","properties":{"municipio":"a1d88535-e05e-4800-979d-3aabd7edf35c","title":"MA - SAO LUIS","tipo":"FGV","url":"\/dashboard\/details-assets\/a1d88535-e05e-4800-979d-3aabd7edf35c"},"geometry":{"type":"Point","coordinates":[-44.297919,-2.531886]}},{"type":"Feature","properties":{"municipio":"579fd790-5054-4145-b676-e724b1848e1c","title":"MA - SANTA INES","tipo":"FGV","url":"\/dashboard\/details-assets\/579fd790-5054-4145-b676-e724b1848e1c"},"geometry":{"type":"Point","coordinates":[-45.383971,-3.664429]}},{"type":"Feature","properties":{"municipio":"c678570b-7658-488e-860b-1b25d58eec1a","title":"MA - PINHEIRO","tipo":"FGV","url":"\/dashboard\/details-assets\/c678570b-7658-488e-860b-1b25d58eec1a"},"geometry":{"type":"Point","coordinates":[-45.083927,-2.52274]}},{"type":"Feature","properties":{"municipio":"7a804c98-a636-48e6-8702-fbc0e66d3d0c","title":"MA - IMPERATRIZ","tipo":"FGV","url":"\/dashboard\/details-assets\/7a804c98-a636-48e6-8702-fbc0e66d3d0c"},"geometry":{"type":"Point","coordinates":[-47.479811,-5.526524]}},{"type":"Feature","properties":{"municipio":"d3cac9d8-92c3-4802-850c-0fe52e74c3f8","title":"MA - CAXIAS","tipo":"FGV","url":"\/dashboard\/details-assets\/d3cac9d8-92c3-4802-850c-0fe52e74c3f8"},"geometry":{"type":"Point","coordinates":[-43.358539,-4.861675]}},{"type":"Feature","properties":{"municipio":"d0dfd892-e0a2-4a40-afaa-7b56a948fe5f","title":"GO - TRINDADE","tipo":"FGV","url":"\/dashboard\/details-assets\/d0dfd892-e0a2-4a40-afaa-7b56a948fe5f"},"geometry":{"type":"Point","coordinates":[-49.489099,-16.65535]}},{"type":"Feature","properties":{"municipio":"cdcca64b-ede5-4429-9290-e10a5a2cd543","title":"GO - RIO VERDE","tipo":"FGV","url":"\/dashboard\/details-assets\/cdcca64b-ede5-4429-9290-e10a5a2cd543"},"geometry":{"type":"Point","coordinates":[-50.929681,-17.794543]}},{"type":"Feature","properties":{"municipio":"4ca88a78-ddbb-4b2b-8062-b3d2dbab3208","title":"GO - MINEIROS","tipo":"FGV","url":"\/dashboard\/details-assets\/4ca88a78-ddbb-4b2b-8062-b3d2dbab3208"},"geometry":{"type":"Point","coordinates":[-52.554667,-17.566168]}},{"type":"Feature","properties":{"municipio":"2316936c-2252-454e-a0ba-645819091fc8","title":"GO - JATAI","tipo":"FGV","url":"\/dashboard\/details-assets\/2316936c-2252-454e-a0ba-645819091fc8"},"geometry":{"type":"Point","coordinates":[-51.720818,-17.886232]}},{"type":"Feature","properties":{"municipio":"86f3e570-3ee0-499c-a1ee-36f31761c309","title":"GO - ITUMBIARA","tipo":"FGV","url":"\/dashboard\/details-assets\/86f3e570-3ee0-499c-a1ee-36f31761c309"},"geometry":{"type":"Point","coordinates":[-49.22087,-18.417682]}},{"type":"Feature","properties":{"municipio":"f2cc56b8-1246-4f2a-aefc-c891f7df449e","title":"GO - GOIATUBA","tipo":"FGV","url":"\/dashboard\/details-assets\/f2cc56b8-1246-4f2a-aefc-c891f7df449e"},"geometry":{"type":"Point","coordinates":[-49.367343,-17.978493]}},{"type":"Feature","properties":{"municipio":"52aab7a1-e5da-4d8a-ba98-786641360195","title":"GO - GOIANIA","tipo":"FGV","url":"\/dashboard\/details-assets\/52aab7a1-e5da-4d8a-ba98-786641360195"},"geometry":{"type":"Point","coordinates":[-49.255814,-16.67331]}},{"type":"Feature","properties":{"municipio":"9cde8db6-5332-4b1b-ac8d-c8343ce42fd7","title":"GO - GOIANESIA","tipo":"FGV","url":"\/dashboard\/details-assets\/9cde8db6-5332-4b1b-ac8d-c8343ce42fd7"},"geometry":{"type":"Point","coordinates":[-49.11581,-15.322289]}},{"type":"Feature","properties":{"municipio":"4be3a595-955f-4f94-b6d7-0e70bb7b78bc","title":"GO - CATALAO","tipo":"FGV","url":"\/dashboard\/details-assets\/4be3a595-955f-4f94-b6d7-0e70bb7b78bc"},"geometry":{"type":"Point","coordinates":[-47.947703,-18.169573]}},{"type":"Feature","properties":{"municipio":"f0f6acd1-21fa-4804-a563-e3aeff9c0321","title":"GO - FORMOSA","tipo":"FGV","url":"\/dashboard\/details-assets\/f0f6acd1-21fa-4804-a563-e3aeff9c0321"},"geometry":{"type":"Point","coordinates":[-47.33743,-15.540441]}},{"type":"Feature","properties":{"municipio":"ae70abe7-e482-44da-9c06-7b1cdeee838b","title":"GO - APARECIDA DE GOIANIA","tipo":"FGV","url":"\/dashboard\/details-assets\/ae70abe7-e482-44da-9c06-7b1cdeee838b"},"geometry":{"type":"Point","coordinates":[-49.243326,-16.822146]}},{"type":"Feature","properties":{"municipio":"25bb5383-9db2-4313-a35d-58993464044d","title":"GO - ANAPOLIS","tipo":"FGV","url":"\/dashboard\/details-assets\/25bb5383-9db2-4313-a35d-58993464044d"},"geometry":{"type":"Point","coordinates":[-48.953403,-16.328546]}},{"type":"Feature","properties":{"municipio":"51b571e3-2b12-4ddd-81c7-8c60059da870","title":"ES - VITORIA","tipo":"FGV","url":"\/dashboard\/details-assets\/51b571e3-2b12-4ddd-81c7-8c60059da870"},"geometry":{"type":"Point","coordinates":[-40.322209,-20.320154]}},{"type":"Feature","properties":{"municipio":"0fb11ab2-df8d-4fc8-9504-7fa553eebeeb","title":"ES - VILA VELHA","tipo":"FGV","url":"\/dashboard\/details-assets\/0fb11ab2-df8d-4fc8-9504-7fa553eebeeb"},"geometry":{"type":"Point","coordinates":[-40.293957,-20.338374]}},{"type":"Feature","properties":{"municipio":"b47739cc-6dd8-4787-a976-2770d305d6a5","title":"ES - COLATINA","tipo":"FGV","url":"\/dashboard\/details-assets\/b47739cc-6dd8-4787-a976-2770d305d6a5"},"geometry":{"type":"Point","coordinates":[-40.630318,-19.53627]}},{"type":"Feature","properties":{"municipio":"ed8a17bb-9e81-4937-b787-124fb660a99b","title":"DF - BRASILIA","tipo":"FGV","url":"\/dashboard\/details-assets\/ed8a17bb-9e81-4937-b787-124fb660a99b"},"geometry":{"type":"Point","coordinates":[-47.882166,-15.794229]}},{"type":"Feature","properties":{"municipio":"35f60885-034b-4fbe-945b-f0897d25113d","title":"ES - CACHOEIRO DE ITAPEMIRIM","tipo":"FGV","url":"\/dashboard\/details-assets\/35f60885-034b-4fbe-945b-f0897d25113d"},"geometry":{"type":"Point","coordinates":[-41.111919,-20.850112]}},{"type":"Feature","properties":{"municipio":"d84b051c-35bd-4836-807d-00925ce2ed00","title":"CE - SOBRAL","tipo":"FGV","url":"\/dashboard\/details-assets\/d84b051c-35bd-4836-807d-00925ce2ed00"},"geometry":{"type":"Point","coordinates":[-40.348668,-3.688038]}},{"type":"Feature","properties":{"municipio":"9a46faf4-3694-467d-b19b-46385a204820","title":"CE - FORTALEZA","tipo":"FGV","url":"\/dashboard\/details-assets\/9a46faf4-3694-467d-b19b-46385a204820"},"geometry":{"type":"Point","coordinates":[-38.589928,-3.723805]}},{"type":"Feature","properties":{"municipio":"2be89f55-63ef-4b02-8687-8e8a8fe3b4c1","title":"CE - JUAZEIRO DO NORTE","tipo":"FGV","url":"\/dashboard\/details-assets\/2be89f55-63ef-4b02-8687-8e8a8fe3b4c1"},"geometry":{"type":"Point","coordinates":[-39.316993,-7.210766]}},{"type":"Feature","properties":{"municipio":"c1b4ec0d-b57e-47ac-ba81-5c1c9971777c","title":"CE - CANINDE","tipo":"FGV","url":"\/dashboard\/details-assets\/c1b4ec0d-b57e-47ac-ba81-5c1c9971777c"},"geometry":{"type":"Point","coordinates":[-39.313786,-4.358087]}},{"type":"Feature","properties":{"municipio":"e7e43f97-f761-46a6-ace7-4163b5ff0786","title":"BA - VITORIA DA CONQUISTA","tipo":"FGV","url":"\/dashboard\/details-assets\/e7e43f97-f761-46a6-ace7-4163b5ff0786"},"geometry":{"type":"Point","coordinates":[-40.83981,-14.848005]}},{"type":"Feature","properties":{"municipio":"b830bd6e-21e4-441c-b3f1-068b58cebd8e","title":"CE - BARBALHA","tipo":"FGV","url":"\/dashboard\/details-assets\/b830bd6e-21e4-441c-b3f1-068b58cebd8e"},"geometry":{"type":"Point","coordinates":[-39.302316,-7.307172]}},{"type":"Feature","properties":{"municipio":"2fdc9630-7a8c-467a-8c04-9ce220f5d2a7","title":"BA - TEIXEIRA DE FREITAS","tipo":"FGV","url":"\/dashboard\/details-assets\/2fdc9630-7a8c-467a-8c04-9ce220f5d2a7"},"geometry":{"type":"Point","coordinates":[-39.744518,-17.53775]}},{"type":"Feature","properties":{"municipio":"393dc1dd-c42f-4bff-8010-a177ba4b789a","title":"BA - SALVADOR","tipo":"FGV","url":"\/dashboard\/details-assets\/393dc1dd-c42f-4bff-8010-a177ba4b789a"},"geometry":{"type":"Point","coordinates":[-38.489434,-12.990687]}},{"type":"Feature","properties":{"municipio":"7483ebcb-e90c-47d1-bb54-3aef57f7dcbf","title":"BA - SANTO ANTONIO DE JESUS","tipo":"FGV","url":"\/dashboard\/details-assets\/7483ebcb-e90c-47d1-bb54-3aef57f7dcbf"},"geometry":{"type":"Point","coordinates":[-39.261131,-12.968008]}},{"type":"Feature","properties":{"municipio":"c1b2752f-a90a-4b3a-bcb2-8a031b5cc8bd","title":"BA - PAULO AFONSO","tipo":"FGV","url":"\/dashboard\/details-assets\/c1b2752f-a90a-4b3a-bcb2-8a031b5cc8bd"},"geometry":{"type":"Point","coordinates":[-38.218329,-9.403332]}},{"type":"Feature","properties":{"municipio":"ce6e268c-a5a7-425d-b2b9-1b8e11366910","title":"BA - LAURO DE FREITAS","tipo":"FGV","url":"\/dashboard\/details-assets\/ce6e268c-a5a7-425d-b2b9-1b8e11366910"},"geometry":{"type":"Point","coordinates":[-38.323462,-12.896718]}},{"type":"Feature","properties":{"municipio":"4be7a65c-1d31-4c2b-a156-268472dd3f37","title":"BA - JUAZEIRO","tipo":"FGV","url":"\/dashboard\/details-assets\/4be7a65c-1d31-4c2b-a156-268472dd3f37"},"geometry":{"type":"Point","coordinates":[-40.503552,-9.410717]}},{"type":"Feature","properties":{"municipio":"046a8d3e-394a-4437-9328-66db3d65728d","title":"BA - JEQUIE","tipo":"FGV","url":"\/dashboard\/details-assets\/046a8d3e-394a-4437-9328-66db3d65728d"},"geometry":{"type":"Point","coordinates":[-40.088607,-13.855664]}},{"type":"Feature","properties":{"municipio":"0ed3e741-ff50-4d87-9acb-02c1884ef186","title":"BA - JACOBINA","tipo":"FGV","url":"\/dashboard\/details-assets\/0ed3e741-ff50-4d87-9acb-02c1884ef186"},"geometry":{"type":"Point","coordinates":[-40.513018,-11.185062]}},{"type":"Feature","properties":{"municipio":"d3690cbf-a13e-4b1a-a2a5-3e7f934b31a5","title":"BA - ITABUNA","tipo":"FGV","url":"\/dashboard\/details-assets\/d3690cbf-a13e-4b1a-a2a5-3e7f934b31a5"},"geometry":{"type":"Point","coordinates":[-39.273109,-14.78904]}},{"type":"Feature","properties":{"municipio":"6211110e-2a56-49b7-873f-211af6f4d15c","title":"BA - IRECE","tipo":"FGV","url":"\/dashboard\/details-assets\/6211110e-2a56-49b7-873f-211af6f4d15c"},"geometry":{"type":"Point","coordinates":[-41.85886,-11.30338]}},{"type":"Feature","properties":{"municipio":"298a305b-7cc1-425c-9bf2-7ee7814eecde","title":"BA - ILHEUS","tipo":"FGV","url":"\/dashboard\/details-assets\/298a305b-7cc1-425c-9bf2-7ee7814eecde"},"geometry":{"type":"Point","coordinates":[-39.043184,-14.79332]}},{"type":"Feature","properties":{"municipio":"52c9f51c-1380-48b8-9ae7-1c433e0eae5d","title":"BA - GUANAMBI","tipo":"FGV","url":"\/dashboard\/details-assets\/52c9f51c-1380-48b8-9ae7-1c433e0eae5d"},"geometry":{"type":"Point","coordinates":[-42.778562,-14.225315]}},{"type":"Feature","properties":{"municipio":"c29c02f3-98a9-4bb8-85b1-0f8c12fd75bf","title":"BA - FEIRA DE SANTANA","tipo":"FGV","url":"\/dashboard\/details-assets\/c29c02f3-98a9-4bb8-85b1-0f8c12fd75bf"},"geometry":{"type":"Point","coordinates":[-38.960033,-12.229284]}},{"type":"Feature","properties":{"municipio":"3bca2593-a43d-4911-aeda-f491197e6e22","title":"BA - EUNAPOLIS","tipo":"FGV","url":"\/dashboard\/details-assets\/3bca2593-a43d-4911-aeda-f491197e6e22"},"geometry":{"type":"Point","coordinates":[-39.584172,-16.375167]}},{"type":"Feature","properties":{"municipio":"c20fd7ee-5705-41e1-9dc0-b70eac315ebd","title":"BA - BARREIRAS","tipo":"FGV","url":"\/dashboard\/details-assets\/c20fd7ee-5705-41e1-9dc0-b70eac315ebd"},"geometry":{"type":"Point","coordinates":[-45.004168,-12.144925]}},{"type":"Feature","properties":{"municipio":"f48bd630-1af9-42e9-a1c3-7895d15e89dd","title":"BA - ALAGOINHAS","tipo":"FGV","url":"\/dashboard\/details-assets\/f48bd630-1af9-42e9-a1c3-7895d15e89dd"},"geometry":{"type":"Point","coordinates":[-38.426334,-12.1344]}},{"type":"Feature","properties":{"municipio":"a8dca7ad-b0c4-4827-a48c-dca6d1b526da","title":"AP - MACAPA","tipo":"FGV","url":"\/dashboard\/details-assets\/a8dca7ad-b0c4-4827-a48c-dca6d1b526da"},"geometry":{"type":"Point","coordinates":[-51.057405,0.038951]}},{"type":"Feature","properties":{"municipio":"941ce8a5-fa23-4766-be66-c94853fe286d","title":"AM - MANAUS","tipo":"FGV","url":"\/dashboard\/details-assets\/941ce8a5-fa23-4766-be66-c94853fe286d"},"geometry":{"type":"Point","coordinates":[-60.023335,-3.134691]}},{"type":"Feature","properties":{"municipio":"b00a2b26-1064-450c-8fcd-5cbfd13f5884","title":"AL - MACEIO","tipo":"FGV","url":"\/dashboard\/details-assets\/b00a2b26-1064-450c-8fcd-5cbfd13f5884"},"geometry":{"type":"Point","coordinates":[-35.70163,-9.660822]}},{"type":"Feature","properties":{"municipio":"7006fab7-05db-4b00-9026-d203b44e10d7","title":"AL - ARAPIRACA","tipo":"FGV","url":"\/dashboard\/details-assets\/7006fab7-05db-4b00-9026-d203b44e10d7"},"geometry":{"type":"Point","coordinates":[-36.657297,-9.755907]}}]}