[{"id":"db1fb5ed-837d-4e1c-926b-3ebe26c4cf34","title":"TO - WANDERLANDIA","tipo":"Cebraspe","url":"\/dashboard\/details-assets\/db1fb5ed-837d-4e1c-926b-3ebe26c4cf34","coordinates":[-47.987982,-6.852034]},{"id":"d73517d9-d608-4cc0-a38e-bd8e7cdfc4bd","title":"TO - XAMBIOA","tipo":"Cebraspe","url":"\/dashboard\/details-assets\/d73517d9-d608-4cc0-a38e-bd8e7cdfc4bd","coordinates":[-48.438758,-6.534881]},{"id":"5f1635d3-dc8f-40d5-93ed-6b16bd535a89","title":"TO - TOCANTINOPOLIS","tipo":"Cebraspe","url":"\/dashboard\/details-assets\/5f1635d3-dc8f-40d5-93ed-6b16bd535a89","coordinates":[-47.429498,-6.324747]},{"id":"c903755d-42ca-4939-9c2e-9ad08a136803","title":"TO - PALMAS","tipo":"Cebraspe","url":"\/dashboard\/details-assets\/c903755d-42ca-4939-9c2e-9ad08a136803","coordinates":[-48.317036,-10.230299]},{"id":"4514c06d-6084-43b6-bcf0-b9988f76b2ed","title":"TO - TAGUATINGA","tipo":"Cebraspe","url":"\/dashboard\/details-assets\/4514c06d-6084-43b6-bcf0-b9988f76b2ed","coordinates":[-46.442844,-12.406006]},{"id":"1e00b776-89a3-4260-ad71-caf61ee2ce95","title":"TO - SITIO NOVO DO TOCANTINS","tipo":"Cebraspe","url":"\/dashboard\/details-assets\/1e00b776-89a3-4260-ad71-caf61ee2ce95","coordinates":[-47.652845,-5.614472]},{"id":"c639c024-ff1a-4667-898d-d3e7bc646d75","title":"TO - SANTA FE DO ARAGUAIA","tipo":"Cebraspe","url":"\/dashboard\/details-assets\/c639c024-ff1a-4667-898d-d3e7bc646d75","coordinates":[-48.766963,-7.171245]},{"id":"5025fd12-f83c-497a-933b-6b04581386e2","title":"TO - PEIXE","tipo":"Cebraspe","url":"\/dashboard\/details-assets\/5025fd12-f83c-497a-933b-6b04581386e2","coordinates":[-48.548696,-12.025853]},{"id":"81b44f1f-c52b-4d57-aece-09f6d1fb6497","title":"TO - PORTO NACIONAL","tipo":"Cebraspe","url":"\/dashboard\/details-assets\/81b44f1f-c52b-4d57-aece-09f6d1fb6497","coordinates":[-48.408486,-10.703164]},{"id":"c39ba642-a396-4b32-8778-6c9f25d5eb2d","title":"TO - PEDRO AFONSO","tipo":"Cebraspe","url":"\/dashboard\/details-assets\/c39ba642-a396-4b32-8778-6c9f25d5eb2d","coordinates":[-48.178975,-8.962943]},{"id":"e07c3d92-0dad-4d19-b1d9-e499ef489356","title":"TO - PARAISO DO TOCANTINS","tipo":"Cebraspe","url":"\/dashboard\/details-assets\/e07c3d92-0dad-4d19-b1d9-e499ef489356","coordinates":[-48.874963,-10.102218]},{"id":"5fba3853-fc12-4a9b-ac53-5a285a957c65","title":"TO - PALMEIROPOLIS","tipo":"Cebraspe","url":"\/dashboard\/details-assets\/5fba3853-fc12-4a9b-ac53-5a285a957c65","coordinates":[-48.407342,-13.042427]},{"id":"a4fd09d0-7958-44f4-812f-40c0a6d3d23d","title":"TO - NOVO ACORDO","tipo":"Cebraspe","url":"\/dashboard\/details-assets\/a4fd09d0-7958-44f4-812f-40c0a6d3d23d","coordinates":[-47.683543,-9.992394]},{"id":"6efbfe7d-b0fd-4cc9-85f2-ce70b0cfcb62","title":"TO - NATIVIDADE","tipo":"Cebraspe","url":"\/dashboard\/details-assets\/6efbfe7d-b0fd-4cc9-85f2-ce70b0cfcb62","coordinates":[-47.684901,-11.876469]},{"id":"9dcd1b1d-3ac0-4655-b538-93405ff213f9","title":"TO - MIRACEMA DO TOCANTINS","tipo":"Cebraspe","url":"\/dashboard\/details-assets\/9dcd1b1d-3ac0-4655-b538-93405ff213f9","coordinates":[-48.419984,-9.570547]},{"id":"5e423012-c866-4f3f-9848-8567513a17ca","title":"TO - ITACAJA","tipo":"Cebraspe","url":"\/dashboard\/details-assets\/5e423012-c866-4f3f-9848-8567513a17ca","coordinates":[-47.783532,-8.373788]},{"id":"7c149cbc-5035-4a53-bbe8-0615c10cca98","title":"TO - GURUPI","tipo":"Cebraspe","url":"\/dashboard\/details-assets\/7c149cbc-5035-4a53-bbe8-0615c10cca98","coordinates":[-49.120839,-11.735005]},{"id":"6adf3097-c9f8-4403-881b-a21bc5275a85","title":"TO - GUARAI","tipo":"Cebraspe","url":"\/dashboard\/details-assets\/6adf3097-c9f8-4403-881b-a21bc5275a85","coordinates":[-48.525934,-8.841813]},{"id":"8d432775-d102-4ed1-829e-a61d3032414a","title":"TO - FORMOSO DO ARAGUAIA","tipo":"Cebraspe","url":"\/dashboard\/details-assets\/8d432775-d102-4ed1-829e-a61d3032414a","coordinates":[-49.536601,-11.80576]},{"id":"07114743-f088-4fb7-a13c-da8ab34f63fe","title":"TO - ESPERANTINA","tipo":"Cebraspe","url":"\/dashboard\/details-assets\/07114743-f088-4fb7-a13c-da8ab34f63fe","coordinates":[-48.540014,-5.36695]},{"id":"341930f8-43dc-4fce-8a35-97dd09478480","title":"TO - DIANOPOLIS","tipo":"Cebraspe","url":"\/dashboard\/details-assets\/341930f8-43dc-4fce-8a35-97dd09478480","coordinates":[-46.825934,-11.748062]},{"id":"4197bb13-d961-4586-a14c-51ab99c1cf78","title":"TO - CRISTALANDIA","tipo":"Cebraspe","url":"\/dashboard\/details-assets\/4197bb13-d961-4586-a14c-51ab99c1cf78","coordinates":[-49.221381,-10.579947]},{"id":"21db3266-09de-420e-b89c-8aa8875db653","title":"TO - COLINAS DO TOCANTINS","tipo":"Cebraspe","url":"\/dashboard\/details-assets\/21db3266-09de-420e-b89c-8aa8875db653","coordinates":[-48.448591,-7.990545]},{"id":"fbd0b940-e2f5-4d3b-ac1b-ce0b37a82dc6","title":"TO - BREJINHO DE NAZARE","tipo":"Cebraspe","url":"\/dashboard\/details-assets\/fbd0b940-e2f5-4d3b-ac1b-ce0b37a82dc6","coordinates":[-48.638888,-11.035535]},{"id":"50307ed7-ec8d-4b4c-b597-eb85c6f95ce7","title":"TO - AUGUSTINOPOLIS","tipo":"Cebraspe","url":"\/dashboard\/details-assets\/50307ed7-ec8d-4b4c-b597-eb85c6f95ce7","coordinates":[-47.887112,-5.469433]},{"id":"fed301db-1c5c-4117-aabd-ab53592ec483","title":"TO - ARRAIAS","tipo":"Cebraspe","url":"\/dashboard\/details-assets\/fed301db-1c5c-4117-aabd-ab53592ec483","coordinates":[-46.98051,-12.67706]},{"id":"fe12ecb5-0dcd-4fa4-a22c-089991c9da28","title":"TO - ARAGUATINS","tipo":"Cebraspe","url":"\/dashboard\/details-assets\/fe12ecb5-0dcd-4fa4-a22c-089991c9da28","coordinates":[-48.119389,-5.648411]},{"id":"eeba14e1-d07c-4129-8714-f40487053c80","title":"TO - ARAPOEMA","tipo":"Cebraspe","url":"\/dashboard\/details-assets\/eeba14e1-d07c-4129-8714-f40487053c80","coordinates":[-49.064131,-7.655037]},{"id":"cb84567f-0034-4e65-82b2-5278cf0f5991","title":"TO - ARAGUANA","tipo":"Cebraspe","url":"\/dashboard\/details-assets\/cb84567f-0034-4e65-82b2-5278cf0f5991","coordinates":[-48.518723,-6.81017]},{"id":"000d91bf-7454-41c3-a885-209ce17d7d7b","title":"TO - ANANAS","tipo":"Cebraspe","url":"\/dashboard\/details-assets\/000d91bf-7454-41c3-a885-209ce17d7d7b","coordinates":[-48.073889,-6.364762]},{"id":"395bab92-35e7-4ef9-b26f-9f2967cde65c","title":"TO - ARAGUAINA","tipo":"Cebraspe","url":"\/dashboard\/details-assets\/395bab92-35e7-4ef9-b26f-9f2967cde65c","coordinates":[-48.287407,-7.210941]},{"id":"6139105d-7971-4e07-a0c8-1b98fbf53e69","title":"SP - VOTUPORANGA","tipo":"Cebraspe","url":"\/dashboard\/details-assets\/6139105d-7971-4e07-a0c8-1b98fbf53e69","coordinates":[-49.970325,-20.417194]},{"id":"e88ede87-19dc-4848-8637-f7bd9e861d7e","title":"SP - VINHEDO","tipo":"Cebraspe","url":"\/dashboard\/details-assets\/e88ede87-19dc-4848-8637-f7bd9e861d7e","coordinates":[-46.976476,-23.030538]},{"id":"6e91edcc-b956-4712-8612-51e7db886011","title":"SP - VOTORANTIM","tipo":"Cebraspe","url":"\/dashboard\/details-assets\/6e91edcc-b956-4712-8612-51e7db886011","coordinates":[-47.444598,-23.540286]},{"id":"7934a525-716b-4d62-b2f2-0712fcaabcd2","title":"SP - VARZEA PAULISTA","tipo":"Cebraspe","url":"\/dashboard\/details-assets\/7934a525-716b-4d62-b2f2-0712fcaabcd2","coordinates":[-46.82989,-23.214466]},{"id":"629f16bc-f12c-40fc-a072-9b574516b881","title":"SP - VARGEM GRANDE DO SUL","tipo":"Cebraspe","url":"\/dashboard\/details-assets\/629f16bc-f12c-40fc-a072-9b574516b881","coordinates":[-46.895609,-21.835866]},{"id":"a1786955-8844-4c7c-b65b-5e7753c4d7f6","title":"SP - VARGEM GRANDE PAULISTA","tipo":"Cebraspe","url":"\/dashboard\/details-assets\/a1786955-8844-4c7c-b65b-5e7753c4d7f6","coordinates":[-47.019648,-23.615302]},{"id":"7672f6f6-1b2a-457e-b331-d8b69e85550f","title":"SP - VALINHOS","tipo":"Cebraspe","url":"\/dashboard\/details-assets\/7672f6f6-1b2a-457e-b331-d8b69e85550f","coordinates":[-46.99663,-22.971244]},{"id":"1e9bf0f4-8f01-4087-a0b8-fe876dc55c17","title":"SP - UBATUBA","tipo":"Cebraspe","url":"\/dashboard\/details-assets\/1e9bf0f4-8f01-4087-a0b8-fe876dc55c17","coordinates":[-45.072091,-23.435965]},{"id":"4af38f46-56fc-4e82-89d1-8b8849d13fc2","title":"SP - TUPA","tipo":"Cebraspe","url":"\/dashboard\/details-assets\/4af38f46-56fc-4e82-89d1-8b8849d13fc2","coordinates":[-50.514006,-21.934822]},{"id":"b0071eda-e285-415c-b5c2-eaa038e82eb8","title":"SP - TEODORO SAMPAIO","tipo":"Cebraspe","url":"\/dashboard\/details-assets\/b0071eda-e285-415c-b5c2-eaa038e82eb8","coordinates":[-52.173362,-22.53144]},{"id":"8bc6fe8e-2acd-456f-825c-71ff2e6d31e2","title":"SP - TIETE","tipo":"Cebraspe","url":"\/dashboard\/details-assets\/8bc6fe8e-2acd-456f-825c-71ff2e6d31e2","coordinates":[-47.711473,-23.097889]},{"id":"920bbb66-f1bb-4639-ae12-82081de16cc0","title":"SP - TAUBATE","tipo":"Cebraspe","url":"\/dashboard\/details-assets\/920bbb66-f1bb-4639-ae12-82081de16cc0","coordinates":[-45.556609,-23.026555]},{"id":"920412cd-5cdd-41d7-aff9-a2a337b0d495","title":"SP - TAQUARITINGA","tipo":"Cebraspe","url":"\/dashboard\/details-assets\/920412cd-5cdd-41d7-aff9-a2a337b0d495","coordinates":[-48.506742,-21.410008]},{"id":"d305807b-7ff9-4223-a1e1-dfd0a3ba1e50","title":"SP - TATUI","tipo":"Cebraspe","url":"\/dashboard\/details-assets\/d305807b-7ff9-4223-a1e1-dfd0a3ba1e50","coordinates":[-47.849464,-23.348576]},{"id":"8dab732c-1a36-4ddd-9d38-490af1a17188","title":"SP - TAPIRATIBA","tipo":"Cebraspe","url":"\/dashboard\/details-assets\/8dab732c-1a36-4ddd-9d38-490af1a17188","coordinates":[-46.745515,-21.471885]},{"id":"f4bbbd73-a5e0-4fb5-9b33-6ad89dd671ae","title":"SP - SUZANO","tipo":"Cebraspe","url":"\/dashboard\/details-assets\/f4bbbd73-a5e0-4fb5-9b33-6ad89dd671ae","coordinates":[-46.30781,-23.536827]},{"id":"008f58c2-d763-4c3b-b501-5d0fe3d88c1e","title":"SP - TABOAO DA SERRA","tipo":"Cebraspe","url":"\/dashboard\/details-assets\/008f58c2-d763-4c3b-b501-5d0fe3d88c1e","coordinates":[-46.78578,-23.623328]},{"id":"049305e2-2503-4313-b1c7-1ada1a764ea0","title":"SP - SUMARE","tipo":"Cebraspe","url":"\/dashboard\/details-assets\/049305e2-2503-4313-b1c7-1ada1a764ea0","coordinates":[-47.265803,-22.822145]},{"id":"c9d3a78a-779e-4e64-8b03-c8a0e28bd78e","title":"SP - SOCORRO","tipo":"Cebraspe","url":"\/dashboard\/details-assets\/c9d3a78a-779e-4e64-8b03-c8a0e28bd78e","coordinates":[-46.529212,-22.59203]},{"id":"d230dfa2-f1a4-451c-8ece-a1f677262243","title":"SP - SOROCABA","tipo":"Cebraspe","url":"\/dashboard\/details-assets\/d230dfa2-f1a4-451c-8ece-a1f677262243","coordinates":[-47.457853,-23.499323]},{"id":"a823fa00-1e39-462d-8c4b-d1e8446f181b","title":"SP - SERTAOZINHO","tipo":"Cebraspe","url":"\/dashboard\/details-assets\/a823fa00-1e39-462d-8c4b-d1e8446f181b","coordinates":[-47.991148,-21.137022]},{"id":"2fc8d17a-ed41-41ec-aac8-767a29580434","title":"SP - SERRANA","tipo":"Cebraspe","url":"\/dashboard\/details-assets\/2fc8d17a-ed41-41ec-aac8-767a29580434","coordinates":[-47.597762,-21.209478]},{"id":"1ec275e8-13f8-4c6c-aa63-72de13ad1c22","title":"SP - SAO VICENTE","tipo":"Cebraspe","url":"\/dashboard\/details-assets\/1ec275e8-13f8-4c6c-aa63-72de13ad1c22","coordinates":[-46.384491,-23.967373]},{"id":"a23a9622-b269-4c89-b713-b57a8f67da07","title":"SP - SAO SEBASTIAO","tipo":"Cebraspe","url":"\/dashboard\/details-assets\/a23a9622-b269-4c89-b713-b57a8f67da07","coordinates":[-45.40268,-23.806688]},{"id":"9cc87777-4a74-49d7-851c-ef5871538cd0","title":"SP - SAO ROQUE","tipo":"Cebraspe","url":"\/dashboard\/details-assets\/9cc87777-4a74-49d7-851c-ef5871538cd0","coordinates":[-47.135423,-23.530359]},{"id":"0bf58cdf-1d14-4eba-9f56-fbce14c636ea","title":"SP - SAO PAULO","tipo":"Cebraspe","url":"\/dashboard\/details-assets\/0bf58cdf-1d14-4eba-9f56-fbce14c636ea","coordinates":[-46.570383,-23.567386]},{"id":"7fe04871-12be-44fe-a3f1-ab874e126359","title":"SP - SAO MIGUEL ARCANJO","tipo":"Cebraspe","url":"\/dashboard\/details-assets\/7fe04871-12be-44fe-a3f1-ab874e126359","coordinates":[-47.995589,-23.87949]},{"id":"31914d76-737d-4401-bf9a-53bb4aa58d50","title":"SP - SAO MANUEL","tipo":"Cebraspe","url":"\/dashboard\/details-assets\/31914d76-737d-4401-bf9a-53bb4aa58d50","coordinates":[-48.568763,-22.73646]},{"id":"aa706d31-3ba6-4893-8444-1e095f8ab7cb","title":"SP - SAO JOSE DOS CAMPOS","tipo":"Cebraspe","url":"\/dashboard\/details-assets\/aa706d31-3ba6-4893-8444-1e095f8ab7cb","coordinates":[-45.899405,-23.23021]},{"id":"b78f37f7-2ad6-421b-b1a8-5454d485859f","title":"SP - SAO JOSE DO RIO PRETO","tipo":"Cebraspe","url":"\/dashboard\/details-assets\/b78f37f7-2ad6-421b-b1a8-5454d485859f","coordinates":[-49.376227,-20.811761]},{"id":"f3d02e1e-d827-4bde-bdcd-6668a0fdc7f7","title":"SP - SAO JOSE DO RIO PARDO","tipo":"Cebraspe","url":"\/dashboard\/details-assets\/f3d02e1e-d827-4bde-bdcd-6668a0fdc7f7","coordinates":[-46.887746,-21.59577]},{"id":"c0b21eb1-f655-4d72-b927-368d3f0f9beb","title":"SP - SAO JOAQUIM DA BARRA","tipo":"Cebraspe","url":"\/dashboard\/details-assets\/c0b21eb1-f655-4d72-b927-368d3f0f9beb","coordinates":[-47.863268,-20.583166]},{"id":"e17134c4-f7c6-43f5-b8b4-d40e011a597a","title":"SP - SAO CARLOS","tipo":"Cebraspe","url":"\/dashboard\/details-assets\/e17134c4-f7c6-43f5-b8b4-d40e011a597a","coordinates":[-53.017394,-27.078635]},{"id":"99a41e61-4704-4fd2-b6fe-74b42f7cdb81","title":"SP - SAO JOAO DA BOA VISTA","tipo":"Cebraspe","url":"\/dashboard\/details-assets\/99a41e61-4704-4fd2-b6fe-74b42f7cdb81","coordinates":[-46.796351,-21.972011]},{"id":"5ba8b585-bcae-4c5e-8c37-34cf81af7d4b","title":"SP - SAO CAETANO DO SUL","tipo":"Cebraspe","url":"\/dashboard\/details-assets\/5ba8b585-bcae-4c5e-8c37-34cf81af7d4b","coordinates":[-46.571515,-23.614705]},{"id":"832ce2a0-2392-4bcb-a553-fc842d8bf819","title":"SP - SANTOS","tipo":"Cebraspe","url":"\/dashboard\/details-assets\/832ce2a0-2392-4bcb-a553-fc842d8bf819","coordinates":[-46.331371,-23.933737]},{"id":"8a6a246b-7f8c-43ab-a27e-f778a3bd08b1","title":"SP - SAO BERNARDO DO CAMPO","tipo":"Cebraspe","url":"\/dashboard\/details-assets\/8a6a246b-7f8c-43ab-a27e-f778a3bd08b1","coordinates":[-46.550257,-23.710304]},{"id":"2ed9af8d-fafe-42bb-8214-8b0bdb6c1b6b","title":"SP - SANTO ANDRE","tipo":"Cebraspe","url":"\/dashboard\/details-assets\/2ed9af8d-fafe-42bb-8214-8b0bdb6c1b6b","coordinates":[-46.530874,-23.65751]},{"id":"a61fcd90-9c67-4c71-b7b9-8a0c60f594ff","title":"SP - SANTA ROSA DE VITERBO","tipo":"Cebraspe","url":"\/dashboard\/details-assets\/a61fcd90-9c67-4c71-b7b9-8a0c60f594ff","coordinates":[-47.355603,-21.504574]},{"id":"61be2f9a-ae44-4a9b-8667-a018ff17a0d0","title":"SP - SANTANA DE PARNAIBA","tipo":"Cebraspe","url":"\/dashboard\/details-assets\/61be2f9a-ae44-4a9b-8667-a018ff17a0d0","coordinates":[-46.922093,-23.449453]},{"id":"5d9f71a2-5cfe-4eca-9fd4-7ddb4ed3996c","title":"SP - SANTA ISABEL","tipo":"Cebraspe","url":"\/dashboard\/details-assets\/5d9f71a2-5cfe-4eca-9fd4-7ddb4ed3996c","coordinates":[-46.224396,-23.312622]},{"id":"bfc88ce1-73fe-448f-bb23-9a32b90d2a3e","title":"SP - SANTA FE DO SUL","tipo":"Cebraspe","url":"\/dashboard\/details-assets\/bfc88ce1-73fe-448f-bb23-9a32b90d2a3e","coordinates":[-50.926777,-20.211693]},{"id":"45717903-54ef-4b88-89b2-d8c4bd028077","title":"SP - SANTA CRUZ DO RIO PARDO","tipo":"Cebraspe","url":"\/dashboard\/details-assets\/45717903-54ef-4b88-89b2-d8c4bd028077","coordinates":[-49.624609,-22.905722]},{"id":"c7e73bc9-a33e-4089-bed7-3bf76d841a7b","title":"SP - SANTA BARBARA DOESTE","tipo":"Cebraspe","url":"\/dashboard\/details-assets\/c7e73bc9-a33e-4089-bed7-3bf76d841a7b","coordinates":[-47.413955,-22.755393]},{"id":"c1e778e0-bf3c-48c0-914d-51cbca5c2d69","title":"SP - SALTO","tipo":"Cebraspe","url":"\/dashboard\/details-assets\/c1e778e0-bf3c-48c0-914d-51cbca5c2d69","coordinates":[-47.292416,-23.204074]},{"id":"d3a0676c-aead-407c-8377-efeaef0b33fb","title":"SP - SALTO DE PIRAPORA","tipo":"Cebraspe","url":"\/dashboard\/details-assets\/d3a0676c-aead-407c-8377-efeaef0b33fb","coordinates":[-47.57468,-23.649132]},{"id":"30cb8d92-61dd-4f89-9405-7b931e781094","title":"SP - ROSANA","tipo":"Cebraspe","url":"\/dashboard\/details-assets\/30cb8d92-61dd-4f89-9405-7b931e781094","coordinates":[-53.058654,-22.581175]},{"id":"4868076b-61e2-4206-9b7c-36523bd11f6b","title":"SP - RIO GRANDE DA SERRA","tipo":"Cebraspe","url":"\/dashboard\/details-assets\/4868076b-61e2-4206-9b7c-36523bd11f6b","coordinates":[-46.3972,-23.74393]},{"id":"d4225fd7-4d33-4002-ace9-7fa59c9c9ca5","title":"SP - RIO CLARO","tipo":"Cebraspe","url":"\/dashboard\/details-assets\/d4225fd7-4d33-4002-ace9-7fa59c9c9ca5","coordinates":[-47.563533,-22.412511]},{"id":"d2557ca2-de04-41ce-8183-5ac904f898a3","title":"SP - RIBEIRAO PRETO","tipo":"Cebraspe","url":"\/dashboard\/details-assets\/d2557ca2-de04-41ce-8183-5ac904f898a3","coordinates":[-47.805476,-21.184834]},{"id":"7d4b746d-b35a-495d-875f-a64bd9cd52a4","title":"SP - RIBEIRAO PIRES","tipo":"Cebraspe","url":"\/dashboard\/details-assets\/7d4b746d-b35a-495d-875f-a64bd9cd52a4","coordinates":[-46.415344,-23.707423]},{"id":"1c89f863-ebe2-4b92-92e8-2d8a51d59651","title":"SP - REGISTRO","tipo":"Cebraspe","url":"\/dashboard\/details-assets\/1c89f863-ebe2-4b92-92e8-2d8a51d59651","coordinates":[-47.841055,-24.494251]},{"id":"5a71697e-a028-4537-a3b7-b88ef9d83fbd","title":"SP - RANCHARIA","tipo":"Cebraspe","url":"\/dashboard\/details-assets\/5a71697e-a028-4537-a3b7-b88ef9d83fbd","coordinates":[-50.890212,-22.228451]},{"id":"0e57a605-af4c-46e6-b1d9-2ea33ddc365b","title":"SP - PROMISSAO","tipo":"Cebraspe","url":"\/dashboard\/details-assets\/0e57a605-af4c-46e6-b1d9-2ea33ddc365b","coordinates":[-49.857735,-21.538867]},{"id":"990cc025-4557-4b98-b24e-404df7f3380d","title":"SP - PRESIDENTE VENCESLAU","tipo":"Cebraspe","url":"\/dashboard\/details-assets\/990cc025-4557-4b98-b24e-404df7f3380d","coordinates":[-51.840259,-21.87594]},{"id":"54985d74-b823-4010-b2ba-fcf9f6e67619","title":"SP - PRESIDENTE PRUDENTE","tipo":"Cebraspe","url":"\/dashboard\/details-assets\/54985d74-b823-4010-b2ba-fcf9f6e67619","coordinates":[-51.386766,-22.122743]},{"id":"bf0929fa-e3c5-4843-b523-956b354f77d9","title":"SP - PRESIDENTE EPITACIO","tipo":"Cebraspe","url":"\/dashboard\/details-assets\/bf0929fa-e3c5-4843-b523-956b354f77d9","coordinates":[-52.115276,-21.768782]},{"id":"2be1897b-259b-45ef-bf46-d5c38329e96a","title":"SP - PRAIA GRANDE","tipo":"Cebraspe","url":"\/dashboard\/details-assets\/2be1897b-259b-45ef-bf46-d5c38329e96a","coordinates":[-46.412462,-24.008842]},{"id":"01eadcbf-57c5-463b-93de-aeae813821e9","title":"SP - PORTO FERREIRA","tipo":"Cebraspe","url":"\/dashboard\/details-assets\/01eadcbf-57c5-463b-93de-aeae813821e9","coordinates":[-47.48141,-21.858363]},{"id":"2135d3eb-b160-4ac4-9ad6-1741dfcfa03e","title":"SP - PORTO FELIZ","tipo":"Cebraspe","url":"\/dashboard\/details-assets\/2135d3eb-b160-4ac4-9ad6-1741dfcfa03e","coordinates":[-47.524597,-23.214412]},{"id":"6657db92-e5ad-4548-9b0c-11230ac8407d","title":"SP - POA","tipo":"Cebraspe","url":"\/dashboard\/details-assets\/6657db92-e5ad-4548-9b0c-11230ac8407d","coordinates":[-46.34622,-23.528627]},{"id":"133ecd79-3c3d-46bf-8392-cb5854ca08bf","title":"SP - PONTAL","tipo":"Cebraspe","url":"\/dashboard\/details-assets\/133ecd79-3c3d-46bf-8392-cb5854ca08bf","coordinates":[-48.037837,-21.02571]},{"id":"50bb4e2f-316e-406c-a817-df6fb4dc8c30","title":"SP - PITANGUEIRAS","tipo":"Cebraspe","url":"\/dashboard\/details-assets\/50bb4e2f-316e-406c-a817-df6fb4dc8c30","coordinates":[-51.585768,-23.230304]},{"id":"d2ef0abe-b415-4afe-af74-e61b9285a5ec","title":"SP - PIRAJUI","tipo":"Cebraspe","url":"\/dashboard\/details-assets\/d2ef0abe-b415-4afe-af74-e61b9285a5ec","coordinates":[-49.457917,-21.974887]},{"id":"37fbe9a8-c81e-4989-9281-56ee770322b9","title":"SP - PIRASSUNUNGA","tipo":"Cebraspe","url":"\/dashboard\/details-assets\/37fbe9a8-c81e-4989-9281-56ee770322b9","coordinates":[-47.425173,-21.994049]},{"id":"79e735c2-c00f-4e71-a3a3-3b65e36bf7b9","title":"SP - PIRAJU","tipo":"Cebraspe","url":"\/dashboard\/details-assets\/79e735c2-c00f-4e71-a3a3-3b65e36bf7b9","coordinates":[-49.383974,-23.192991]},{"id":"eb9acea4-fcc8-4e3d-acab-6484add4d648","title":"SP - PIRACICABA","tipo":"Cebraspe","url":"\/dashboard\/details-assets\/eb9acea4-fcc8-4e3d-acab-6484add4d648","coordinates":[-47.646846,-22.723722]},{"id":"c67cee9e-6ad8-48f6-8c43-d0809af2f239","title":"SP - PINDAMONHANGABA","tipo":"Cebraspe","url":"\/dashboard\/details-assets\/c67cee9e-6ad8-48f6-8c43-d0809af2f239","coordinates":[-45.462049,-22.926669]},{"id":"72bbf436-1116-43d6-8797-155bbb1b32e6","title":"SP - PILAR DO SUL","tipo":"Cebraspe","url":"\/dashboard\/details-assets\/72bbf436-1116-43d6-8797-155bbb1b32e6","coordinates":[-47.715508,-23.814612]},{"id":"c1079f49-58f3-480d-8b70-dc8ac07e022f","title":"SP - PERUIBE","tipo":"Cebraspe","url":"\/dashboard\/details-assets\/c1079f49-58f3-480d-8b70-dc8ac07e022f","coordinates":[-46.997302,-24.319509]},{"id":"aab0b751-545e-4da8-bbd3-c29a3d3a0369","title":"SP - PIEDADE","tipo":"Cebraspe","url":"\/dashboard\/details-assets\/aab0b751-545e-4da8-bbd3-c29a3d3a0369","coordinates":[-47.418015,-23.714202]},{"id":"4f41c071-1cb1-448d-a4a5-e240eb78d2a3","title":"SP - PEREIRA BARRETO","tipo":"Cebraspe","url":"\/dashboard\/details-assets\/4f41c071-1cb1-448d-a4a5-e240eb78d2a3","coordinates":[-51.106661,-20.636669]},{"id":"bd4b90ef-ec1e-4418-83d0-ef9b3046e8f5","title":"SP - PENAPOLIS","tipo":"Cebraspe","url":"\/dashboard\/details-assets\/bd4b90ef-ec1e-4418-83d0-ef9b3046e8f5","coordinates":[-50.073036,-21.418383]},{"id":"f5db299d-a5cc-492a-9070-0f9f25b7ba11","title":"SP - PEDREIRA","tipo":"Cebraspe","url":"\/dashboard\/details-assets\/f5db299d-a5cc-492a-9070-0f9f25b7ba11","coordinates":[-46.897802,-22.743771]},{"id":"88582694-8e2e-4026-a010-413973709e69","title":"SP - PEDERNEIRAS","tipo":"Cebraspe","url":"\/dashboard\/details-assets\/88582694-8e2e-4026-a010-413973709e69","coordinates":[-48.779681,-22.355491]},{"id":"685ae64a-8e96-4d52-a234-83acba620a62","title":"SP - PAULINIA","tipo":"Cebraspe","url":"\/dashboard\/details-assets\/685ae64a-8e96-4d52-a234-83acba620a62","coordinates":[-47.154386,-22.759922]},{"id":"83283726-dfe4-4f94-9789-6167c74c83ef","title":"SP - PARAGUACU PAULISTA","tipo":"Cebraspe","url":"\/dashboard\/details-assets\/83283726-dfe4-4f94-9789-6167c74c83ef","coordinates":[-50.575029,-22.417711]},{"id":"3d640773-deea-4662-bd76-a2fe9194b70f","title":"SP - OURINHOS","tipo":"Cebraspe","url":"\/dashboard\/details-assets\/3d640773-deea-4662-bd76-a2fe9194b70f","coordinates":[-49.86858,-22.977267]},{"id":"24239ba8-ecc1-4200-a05e-e20d6a2af8d4","title":"SP - OSVALDO CRUZ","tipo":"Cebraspe","url":"\/dashboard\/details-assets\/24239ba8-ecc1-4200-a05e-e20d6a2af8d4","coordinates":[-50.873139,-21.797083]},{"id":"a3f8e010-f81e-4701-a252-682b8585f255","title":"SP - OSASCO","tipo":"Cebraspe","url":"\/dashboard\/details-assets\/a3f8e010-f81e-4701-a252-682b8585f255","coordinates":[-46.78881,-23.533612]},{"id":"24041d39-9cd0-4488-ab50-ec118765f967","title":"SP - ORLANDIA","tipo":"Cebraspe","url":"\/dashboard\/details-assets\/24041d39-9cd0-4488-ab50-ec118765f967","coordinates":[-47.885819,-20.71754]},{"id":"4a07179b-74db-435f-97f0-74672439adec","title":"SP - OLIMPIA","tipo":"Cebraspe","url":"\/dashboard\/details-assets\/4a07179b-74db-435f-97f0-74672439adec","coordinates":[-48.911061,-20.737112]},{"id":"f619ff3e-1dc2-4427-a900-3c2ad7578bd6","title":"SP - NOVO HORIZONTE","tipo":"Cebraspe","url":"\/dashboard\/details-assets\/f619ff3e-1dc2-4427-a900-3c2ad7578bd6","coordinates":[-49.224652,-21.464975]},{"id":"7552614a-8dda-4676-8ea9-488c427bae06","title":"SP - NOVA ODESSA","tipo":"Cebraspe","url":"\/dashboard\/details-assets\/7552614a-8dda-4676-8ea9-488c427bae06","coordinates":[-47.293635,-22.782795]},{"id":"45048ec3-bd67-4d76-8b32-e137ed05f9db","title":"SP - MONTE MOR","tipo":"Cebraspe","url":"\/dashboard\/details-assets\/45048ec3-bd67-4d76-8b32-e137ed05f9db","coordinates":[-47.313269,-22.945522]},{"id":"8bc2a817-e8bb-48d7-a214-e63e0dea7a2d","title":"SP - MONTE APRAZIVEL","tipo":"Cebraspe","url":"\/dashboard\/details-assets\/8bc2a817-e8bb-48d7-a214-e63e0dea7a2d","coordinates":[-49.714116,-20.77214]},{"id":"7894d8cd-e0e7-471d-b6ed-c60080425a18","title":"SP - MONTE ALTO","tipo":"Cebraspe","url":"\/dashboard\/details-assets\/7894d8cd-e0e7-471d-b6ed-c60080425a18","coordinates":[-48.496651,-21.263864]},{"id":"f587b9a5-160c-4b8b-92c5-c378d1511576","title":"SP - MONGAGUA","tipo":"Cebraspe","url":"\/dashboard\/details-assets\/f587b9a5-160c-4b8b-92c5-c378d1511576","coordinates":[-46.619993,-24.094116]},{"id":"121282cb-f5ed-4b5c-9916-485810d0638d","title":"SP - MOJI MIRIM","tipo":"Cebraspe","url":"\/dashboard\/details-assets\/121282cb-f5ed-4b5c-9916-485810d0638d","coordinates":[-46.956367,-22.432695]},{"id":"388aba58-7a96-4dc9-9fad-064bd0ba3040","title":"SP - MOGI GUACU","tipo":"Cebraspe","url":"\/dashboard\/details-assets\/388aba58-7a96-4dc9-9fad-064bd0ba3040","coordinates":[-46.944474,-22.36572]},{"id":"f229c8e3-aeec-447d-9315-46ef4f1e4192","title":"SP - MOGI DAS CRUZES","tipo":"Cebraspe","url":"\/dashboard\/details-assets\/f229c8e3-aeec-447d-9315-46ef4f1e4192","coordinates":[-46.19676,-23.522706]},{"id":"7bde4b55-76ef-4662-9b40-c596cc0cbc12","title":"SP - MOCOCA","tipo":"Cebraspe","url":"\/dashboard\/details-assets\/7bde4b55-76ef-4662-9b40-c596cc0cbc12","coordinates":[-47.007171,-21.468991]},{"id":"fd6f645a-a725-4c9f-94a6-b91bf5599c3f","title":"SP - MIRASSOL","tipo":"Cebraspe","url":"\/dashboard\/details-assets\/fd6f645a-a725-4c9f-94a6-b91bf5599c3f","coordinates":[-49.512139,-20.817004]},{"id":"c5939de9-d80d-4dc3-b924-2e5a8e2034f5","title":"SP - MIRANTE DO PARANAPANEMA","tipo":"Cebraspe","url":"\/dashboard\/details-assets\/c5939de9-d80d-4dc3-b924-2e5a8e2034f5","coordinates":[-51.905794,-22.290559]},{"id":"34883659-0cee-4fc9-a027-fef4d0d9e4ce","title":"SP - MIRANDOPOLIS","tipo":"Cebraspe","url":"\/dashboard\/details-assets\/34883659-0cee-4fc9-a027-fef4d0d9e4ce","coordinates":[-51.102338,-21.133105]},{"id":"2162c475-beec-4819-b28b-8dcfa04e8eec","title":"SP - MIRACATU","tipo":"Cebraspe","url":"\/dashboard\/details-assets\/2162c475-beec-4819-b28b-8dcfa04e8eec","coordinates":[-47.462913,-24.277132]},{"id":"a3c18e4a-3a19-4c37-b452-5fb672d44d8a","title":"SP - MAUA","tipo":"Cebraspe","url":"\/dashboard\/details-assets\/a3c18e4a-3a19-4c37-b452-5fb672d44d8a","coordinates":[-46.461709,-23.668163]},{"id":"beb0a593-475f-47a9-b135-7d0f2593b503","title":"SP - MATAO","tipo":"Cebraspe","url":"\/dashboard\/details-assets\/beb0a593-475f-47a9-b135-7d0f2593b503","coordinates":[-48.364423,-21.602989]},{"id":"05967133-6e3c-4f6e-bf3a-6af86dd2a03f","title":"SP - MARTINOPOLIS","tipo":"Cebraspe","url":"\/dashboard\/details-assets\/05967133-6e3c-4f6e-bf3a-6af86dd2a03f","coordinates":[-51.172105,-22.149528]},{"id":"55bfaa62-6e1b-4b22-b106-87bf5aef4b5b","title":"SP - MARILIA","tipo":"Cebraspe","url":"\/dashboard\/details-assets\/55bfaa62-6e1b-4b22-b106-87bf5aef4b5b","coordinates":[-49.950529,-22.217585]},{"id":"b59fbe99-4620-4274-b18b-9be68629a696","title":"SP - MAIRINQUE","tipo":"Cebraspe","url":"\/dashboard\/details-assets\/b59fbe99-4620-4274-b18b-9be68629a696","coordinates":[-47.194723,-23.529723]},{"id":"2c804e31-9a69-4bff-b72d-0c76f7af6f67","title":"SP - MAIRIPORA","tipo":"Cebraspe","url":"\/dashboard\/details-assets\/2c804e31-9a69-4bff-b72d-0c76f7af6f67","coordinates":[-46.590279,-23.319505]},{"id":"847aad64-4d40-41ab-8bff-c8a20d26e9c0","title":"SP - LOUVEIRA","tipo":"Cebraspe","url":"\/dashboard\/details-assets\/847aad64-4d40-41ab-8bff-c8a20d26e9c0","coordinates":[-46.94644,-23.086778]},{"id":"7539afa0-5520-46ce-9623-b074cdf30408","title":"SP - LORENA","tipo":"Cebraspe","url":"\/dashboard\/details-assets\/7539afa0-5520-46ce-9623-b074cdf30408","coordinates":[-45.124248,-22.731693]},{"id":"61b5c5fc-c7bd-44e6-bb2f-5cfe7848d408","title":"SP - LIMEIRA","tipo":"Cebraspe","url":"\/dashboard\/details-assets\/61b5c5fc-c7bd-44e6-bb2f-5cfe7848d408","coordinates":[-47.40194,-22.562194]},{"id":"1fbeb7a7-cf0b-44c3-aa81-cc90223cbf48","title":"SP - LINS","tipo":"Cebraspe","url":"\/dashboard\/details-assets\/1fbeb7a7-cf0b-44c3-aa81-cc90223cbf48","coordinates":[-49.751423,-21.672346]},{"id":"f230dc7e-fcae-4e9a-9840-ec330226510e","title":"SP - LENCOIS PAULISTA","tipo":"Cebraspe","url":"\/dashboard\/details-assets\/f230dc7e-fcae-4e9a-9840-ec330226510e","coordinates":[-48.798682,-22.597507]},{"id":"92761691-14f3-4b6b-b9c6-85091690d47a","title":"SP - LEME","tipo":"Cebraspe","url":"\/dashboard\/details-assets\/92761691-14f3-4b6b-b9c6-85091690d47a","coordinates":[-47.388708,-22.185436]},{"id":"4a8d4cf2-b0bd-4779-aa85-17c39b641068","title":"SP - JUQUITIBA","tipo":"Cebraspe","url":"\/dashboard\/details-assets\/4a8d4cf2-b0bd-4779-aa85-17c39b641068","coordinates":[-47.081594,-23.935689]},{"id":"1727f231-4722-43f2-a804-7745019d6cf8","title":"SP - JUNDIAI","tipo":"Cebraspe","url":"\/dashboard\/details-assets\/1727f231-4722-43f2-a804-7745019d6cf8","coordinates":[-46.885274,-23.187668]},{"id":"5876bf92-e961-42ac-b306-072f75b8ed72","title":"SP - JAU","tipo":"Cebraspe","url":"\/dashboard\/details-assets\/5876bf92-e961-42ac-b306-072f75b8ed72","coordinates":[-48.558141,-22.295791]},{"id":"10552890-9e15-411e-a72a-3ed85cb9c4ff","title":"SP - JOSE BONIFACIO","tipo":"Cebraspe","url":"\/dashboard\/details-assets\/10552890-9e15-411e-a72a-3ed85cb9c4ff","coordinates":[-49.686283,-21.053719]},{"id":"e202c284-7d09-4767-bbeb-2b4581ec9fa4","title":"SP - JARDINOPOLIS","tipo":"Cebraspe","url":"\/dashboard\/details-assets\/e202c284-7d09-4767-bbeb-2b4581ec9fa4","coordinates":[-47.777205,-21.027762]},{"id":"bfc7f650-dd4d-4957-8355-284f201a8eb9","title":"SP - JANDIRA","tipo":"Cebraspe","url":"\/dashboard\/details-assets\/bfc7f650-dd4d-4957-8355-284f201a8eb9","coordinates":[-46.905221,-23.529939]},{"id":"d5eeacbd-65c3-40e4-b248-f4b52dcae2c2","title":"SP - JALES","tipo":"Cebraspe","url":"\/dashboard\/details-assets\/d5eeacbd-65c3-40e4-b248-f4b52dcae2c2","coordinates":[-50.550356,-20.267853]},{"id":"edc55677-7c96-4342-8eaa-668e4deb1057","title":"SP - JAGUARIUNA","tipo":"Cebraspe","url":"\/dashboard\/details-assets\/edc55677-7c96-4342-8eaa-668e4deb1057","coordinates":[-46.982343,-22.706782]},{"id":"71cc3991-26bd-411b-bb96-ee73cc3b7da4","title":"SP - JACAREI","tipo":"Cebraspe","url":"\/dashboard\/details-assets\/71cc3991-26bd-411b-bb96-ee73cc3b7da4","coordinates":[-45.969593,-23.30488]},{"id":"a6eff2fb-5467-4547-955c-d48189ebac53","title":"SP - JABOTICABAL","tipo":"Cebraspe","url":"\/dashboard\/details-assets\/a6eff2fb-5467-4547-955c-d48189ebac53","coordinates":[-48.32035,-21.254471]},{"id":"87658f99-54c3-4f86-93d4-9acd930fe74b","title":"SP - ITUVERAVA","tipo":"Cebraspe","url":"\/dashboard\/details-assets\/87658f99-54c3-4f86-93d4-9acd930fe74b","coordinates":[-47.780416,-20.336288]},{"id":"0f72dc56-8923-4271-916a-272e6a595def","title":"SP - ITUPEVA","tipo":"Cebraspe","url":"\/dashboard\/details-assets\/0f72dc56-8923-4271-916a-272e6a595def","coordinates":[-47.055701,-23.15341]},{"id":"e5b27ad6-7c22-4a07-baea-e0791703426f","title":"SP - ITU","tipo":"Cebraspe","url":"\/dashboard\/details-assets\/e5b27ad6-7c22-4a07-baea-e0791703426f","coordinates":[-47.29975,-23.265442]},{"id":"ca99a79b-0221-47a2-8347-ade7aadfc6eb","title":"SP - ITATIBA","tipo":"Cebraspe","url":"\/dashboard\/details-assets\/ca99a79b-0221-47a2-8347-ade7aadfc6eb","coordinates":[-46.837558,-23.004853]},{"id":"d8c355be-5393-4f98-8224-bd881ef235f6","title":"SP - ITARARE","tipo":"Cebraspe","url":"\/dashboard\/details-assets\/d8c355be-5393-4f98-8224-bd881ef235f6","coordinates":[-49.33612,-24.112138]},{"id":"025e1ce4-9245-4597-97bd-0edfe67eeb78","title":"SP - ITAQUAQUECETUBA","tipo":"Cebraspe","url":"\/dashboard\/details-assets\/025e1ce4-9245-4597-97bd-0edfe67eeb78","coordinates":[-46.351603,-23.476897]},{"id":"16db561c-6e5a-4346-a2f9-27f084110296","title":"SP - ITAPOLIS","tipo":"Cebraspe","url":"\/dashboard\/details-assets\/16db561c-6e5a-4346-a2f9-27f084110296","coordinates":[-48.813392,-21.594704]},{"id":"a5b7795a-fb8c-4535-9b8c-58859a2befdc","title":"SP - ITAPIRA","tipo":"Cebraspe","url":"\/dashboard\/details-assets\/a5b7795a-fb8c-4535-9b8c-58859a2befdc","coordinates":[-46.821248,-22.436005]},{"id":"8968c6b8-cc86-4d01-9232-96150047aec4","title":"SP - ITAPEVI","tipo":"Cebraspe","url":"\/dashboard\/details-assets\/8968c6b8-cc86-4d01-9232-96150047aec4","coordinates":[-46.933373,-23.546934]},{"id":"2c64b966-f550-43f1-9d77-0d6a625c718f","title":"SP - ITAPEVA","tipo":"Cebraspe","url":"\/dashboard\/details-assets\/2c64b966-f550-43f1-9d77-0d6a625c718f","coordinates":[-48.877389,-23.983438]},{"id":"0eb9cfdd-45ac-4883-a485-dd1a27e67695","title":"SP - ITAPETININGA","tipo":"Cebraspe","url":"\/dashboard\/details-assets\/0eb9cfdd-45ac-4883-a485-dd1a27e67695","coordinates":[-48.046143,-23.587872]},{"id":"1635c550-b747-4b55-9f04-2e4fdf9710da","title":"SP - ITAPECERICA DA SERRA","tipo":"Cebraspe","url":"\/dashboard\/details-assets\/1635c550-b747-4b55-9f04-2e4fdf9710da","coordinates":[-46.850552,-23.715357]},{"id":"c7af4c26-c4c0-4107-9fba-733327d0ce36","title":"SP - ITANHAEM","tipo":"Cebraspe","url":"\/dashboard\/details-assets\/c7af4c26-c4c0-4107-9fba-733327d0ce36","coordinates":[-46.790991,-24.186121]},{"id":"0ba14eb4-22b5-4925-a341-d993c927a610","title":"SP - ITAI","tipo":"Cebraspe","url":"\/dashboard\/details-assets\/0ba14eb4-22b5-4925-a341-d993c927a610","coordinates":[-49.081032,-23.419055]},{"id":"6cd4d20b-5259-452a-acfb-882e51303acc","title":"SP - INDAIATUBA","tipo":"Cebraspe","url":"\/dashboard\/details-assets\/6cd4d20b-5259-452a-acfb-882e51303acc","coordinates":[-47.212309,-23.081646]},{"id":"f3dcf7a0-9d07-41d0-badd-b62be65fd7f1","title":"SP - ILHA SOLTEIRA","tipo":"Cebraspe","url":"\/dashboard\/details-assets\/f3dcf7a0-9d07-41d0-badd-b62be65fd7f1","coordinates":[-51.344891,-20.429372]},{"id":"6cc74e6c-bf2c-4f76-b0e0-fc42f047abb7","title":"SP - ILHABELA","tipo":"Cebraspe","url":"\/dashboard\/details-assets\/6cc74e6c-bf2c-4f76-b0e0-fc42f047abb7","coordinates":[-45.354355,-23.807791]},{"id":"80e3f149-16fa-497d-b5b3-9aea2a0547e9","title":"SP - IGUAPE","tipo":"Cebraspe","url":"\/dashboard\/details-assets\/80e3f149-16fa-497d-b5b3-9aea2a0547e9","coordinates":[-47.553137,-24.706954]},{"id":"dc9d522f-e6bb-4fb0-9559-1b03af72b07a","title":"SP - IBIUNA","tipo":"Cebraspe","url":"\/dashboard\/details-assets\/dc9d522f-e6bb-4fb0-9559-1b03af72b07a","coordinates":[-47.220491,-23.652632]},{"id":"73c5369e-54c7-431a-af17-99dfcc59bcb6","title":"SP - IBITINGA","tipo":"Cebraspe","url":"\/dashboard\/details-assets\/73c5369e-54c7-431a-af17-99dfcc59bcb6","coordinates":[-48.827695,-21.757083]},{"id":"9827ee09-d7f2-4231-80ae-1fc721b4d735","title":"SP - IBATE","tipo":"Cebraspe","url":"\/dashboard\/details-assets\/9827ee09-d7f2-4231-80ae-1fc721b4d735","coordinates":[-48.002388,-21.955602]},{"id":"4f0b3573-9770-422c-b019-34e3d643ec8c","title":"SP - HORTOLANDIA","tipo":"Cebraspe","url":"\/dashboard\/details-assets\/4f0b3573-9770-422c-b019-34e3d643ec8c","coordinates":[-47.221097,-22.858395]},{"id":"f038751f-6e48-40cc-a4e3-f49bbcbb6b54","title":"SP - GUARULHOS","tipo":"Cebraspe","url":"\/dashboard\/details-assets\/f038751f-6e48-40cc-a4e3-f49bbcbb6b54","coordinates":[-46.531084,-23.468506]},{"id":"24d7d1fc-d6ad-4c80-9b6a-93fb4a91c4d2","title":"SP - GUARUJA","tipo":"Cebraspe","url":"\/dashboard\/details-assets\/24d7d1fc-d6ad-4c80-9b6a-93fb4a91c4d2","coordinates":[-46.249034,-23.995149]},{"id":"5a18e98c-632e-41b4-884b-62b09eebf8cb","title":"SP - GUARATINGUETA","tipo":"Cebraspe","url":"\/dashboard\/details-assets\/5a18e98c-632e-41b4-884b-62b09eebf8cb","coordinates":[-45.1916,-22.817425]},{"id":"02ad786f-ddaf-4555-af1e-4c64dbc89711","title":"SP - GUAIRA","tipo":"Cebraspe","url":"\/dashboard\/details-assets\/02ad786f-ddaf-4555-af1e-4c64dbc89711","coordinates":[-54.246758,-24.085275]},{"id":"905148e7-1dc8-4569-b4ff-92b55b1547e0","title":"SP - GUARARAPES","tipo":"Cebraspe","url":"\/dashboard\/details-assets\/905148e7-1dc8-4569-b4ff-92b55b1547e0","coordinates":[-50.642639,-21.253446]},{"id":"82a3a8a1-cb57-4877-ad82-18668b2555bc","title":"SP - GARCA","tipo":"Cebraspe","url":"\/dashboard\/details-assets\/82a3a8a1-cb57-4877-ad82-18668b2555bc","coordinates":[-49.65653,-22.210709]},{"id":"c3d397fe-1f99-4e20-a524-7a0f349d14a5","title":"SP - FRANCO DA ROCHA","tipo":"Cebraspe","url":"\/dashboard\/details-assets\/c3d397fe-1f99-4e20-a524-7a0f349d14a5","coordinates":[-46.727875,-23.320302]},{"id":"e5b0de71-34fa-4733-8a99-7731a0d50c3d","title":"SP - FRANCA","tipo":"Cebraspe","url":"\/dashboard\/details-assets\/e5b0de71-34fa-4733-8a99-7731a0d50c3d","coordinates":[-47.402332,-20.536097]},{"id":"ff3b2eea-f14c-461e-9c9d-a79a24196cdc","title":"SP - FRANCISCO MORATO","tipo":"Cebraspe","url":"\/dashboard\/details-assets\/ff3b2eea-f14c-461e-9c9d-a79a24196cdc","coordinates":[-46.732527,-23.275825]},{"id":"ef079fb1-cde2-4424-ae38-edd4318628d7","title":"SP - FERRAZ DE VASCONCELOS","tipo":"Cebraspe","url":"\/dashboard\/details-assets\/ef079fb1-cde2-4424-ae38-edd4318628d7","coordinates":[-46.364493,-23.528796]},{"id":"8b98454a-f2bc-4a14-ba27-66cadccd3b02","title":"SP - FERNANDOPOLIS","tipo":"Cebraspe","url":"\/dashboard\/details-assets\/8b98454a-f2bc-4a14-ba27-66cadccd3b02","coordinates":[-50.248748,-20.282383]},{"id":"d07d9552-9bef-4086-a875-6add06b23dc9","title":"SP - EMBUGUACU","tipo":"Cebraspe","url":"\/dashboard\/details-assets\/d07d9552-9bef-4086-a875-6add06b23dc9","coordinates":[-46.817109,-23.831829]},{"id":"dc2c5be9-b143-4f61-a2a1-b182aff3f866","title":"SP - ESPIRITO SANTO DO PINHAL","tipo":"Cebraspe","url":"\/dashboard\/details-assets\/dc2c5be9-b143-4f61-a2a1-b182aff3f866","coordinates":[-46.745514,-22.197053]},{"id":"23ef4b5b-09a5-455d-90d6-451acfaf8b05","title":"SP - EMBU DAS ARTES","tipo":"Cebraspe","url":"\/dashboard\/details-assets\/23ef4b5b-09a5-455d-90d6-451acfaf8b05","coordinates":[-46.85086,-23.647312]},{"id":"aeb7f05f-ea15-4c53-afc8-82a9d5ce47cc","title":"SP - ELDORADO","tipo":"Cebraspe","url":"\/dashboard\/details-assets\/aeb7f05f-ea15-4c53-afc8-82a9d5ce47cc","coordinates":[-54.280028,-23.774054]},{"id":"0636402a-f4f0-4d11-a7b1-36a94c60be8e","title":"SP - DIADEMA","tipo":"Cebraspe","url":"\/dashboard\/details-assets\/0636402a-f4f0-4d11-a7b1-36a94c60be8e","coordinates":[-46.623381,-23.689295]},{"id":"0d0f9cc9-7d13-4802-8021-ad686f344f72","title":"SP - DRACENA","tipo":"Cebraspe","url":"\/dashboard\/details-assets\/0d0f9cc9-7d13-4802-8021-ad686f344f72","coordinates":[-51.53405,-21.486138]},{"id":"e0195605-c30b-4841-87b1-addf7b4d195b","title":"SP - CUBATAO","tipo":"Cebraspe","url":"\/dashboard\/details-assets\/e0195605-c30b-4841-87b1-addf7b4d195b","coordinates":[-46.420032,-23.883839]},{"id":"873a693e-f5e8-4654-8ea2-368bd07b7068","title":"SP - CRUZEIRO","tipo":"Cebraspe","url":"\/dashboard\/details-assets\/873a693e-f5e8-4654-8ea2-368bd07b7068","coordinates":[-44.961732,-22.57775]},{"id":"9cd6bfae-79a1-4c5e-9ea7-5d5cb3b72eae","title":"SP - COTIA","tipo":"Cebraspe","url":"\/dashboard\/details-assets\/9cd6bfae-79a1-4c5e-9ea7-5d5cb3b72eae","coordinates":[-46.931846,-23.603514]},{"id":"273dfbf6-cd92-4425-83b1-5a480ba6ab27","title":"SP - COSMOPOLIS","tipo":"Cebraspe","url":"\/dashboard\/details-assets\/273dfbf6-cd92-4425-83b1-5a480ba6ab27","coordinates":[-47.196771,-22.645785]},{"id":"206ccd75-ae14-43b9-b381-e83c520a98fc","title":"SP - CERQUEIRA CESAR","tipo":"Cebraspe","url":"\/dashboard\/details-assets\/206ccd75-ae14-43b9-b381-e83c520a98fc","coordinates":[-49.16533,-23.034797]},{"id":"ac1bcd82-ac5a-4ada-9014-9b71d6e3e220","title":"SP - CERQUILHO","tipo":"Cebraspe","url":"\/dashboard\/details-assets\/ac1bcd82-ac5a-4ada-9014-9b71d6e3e220","coordinates":[-47.737531,-23.168672]},{"id":"4cde9c77-4cb7-4683-b705-b26976ee5639","title":"SP - CATANDUVA","tipo":"Cebraspe","url":"\/dashboard\/details-assets\/4cde9c77-4cb7-4683-b705-b26976ee5639","coordinates":[-48.975871,-21.139538]},{"id":"394f40e1-be57-4833-bc67-7e834f0e3a20","title":"SP - CARAPICUIBA","tipo":"Cebraspe","url":"\/dashboard\/details-assets\/394f40e1-be57-4833-bc67-7e834f0e3a20","coordinates":[-46.841445,-23.535249]},{"id":"6ef74a13-f050-448d-8b7d-372aef95b0b4","title":"SP - CASA BRANCA","tipo":"Cebraspe","url":"\/dashboard\/details-assets\/6ef74a13-f050-448d-8b7d-372aef95b0b4","coordinates":[-47.079758,-21.777987]},{"id":"98edeef5-11a7-4870-aee3-2206fa01ecd3","title":"SP - CARAGUATATUBA","tipo":"Cebraspe","url":"\/dashboard\/details-assets\/98edeef5-11a7-4870-aee3-2206fa01ecd3","coordinates":[-45.410818,-23.622006]},{"id":"2155b21e-b440-48f8-ac34-56784261a990","title":"SP - CAPIVARI","tipo":"Cebraspe","url":"\/dashboard\/details-assets\/2155b21e-b440-48f8-ac34-56784261a990","coordinates":[-47.502206,-22.999549]},{"id":"cbbc7a8c-326f-4d24-a4a2-718fb4925fe9","title":"SP - CAPAO BONITO","tipo":"Cebraspe","url":"\/dashboard\/details-assets\/cbbc7a8c-326f-4d24-a4a2-718fb4925fe9","coordinates":[-48.351435,-24.006801]},{"id":"0c994184-8850-43d5-a2e5-27d1dfa63e95","title":"SP - CANDIDO MOTA","tipo":"Cebraspe","url":"\/dashboard\/details-assets\/0c994184-8850-43d5-a2e5-27d1dfa63e95","coordinates":[-50.388393,-22.746925]},{"id":"38181cc1-1b7d-46f7-a0f0-17a466b60593","title":"SP - CAMPOS DO JORDAO","tipo":"Cebraspe","url":"\/dashboard\/details-assets\/38181cc1-1b7d-46f7-a0f0-17a466b60593","coordinates":[-45.589202,-22.740092]},{"id":"d5b13088-1857-42e1-be91-30b923395f0e","title":"SP - CAMPO LIMPO PAULISTA","tipo":"Cebraspe","url":"\/dashboard\/details-assets\/d5b13088-1857-42e1-be91-30b923395f0e","coordinates":[-46.789369,-23.208293]},{"id":"253169df-c9ab-487e-b2ea-b5da34c84d26","title":"SP - CAMPINAS","tipo":"Cebraspe","url":"\/dashboard\/details-assets\/253169df-c9ab-487e-b2ea-b5da34c84d26","coordinates":[-47.060156,-22.907342]},{"id":"b006925d-694f-42dc-b6da-b7b0ee0e61ae","title":"SP - CAJURU","tipo":"Cebraspe","url":"\/dashboard\/details-assets\/b006925d-694f-42dc-b6da-b7b0ee0e61ae","coordinates":[-47.303467,-21.275414]},{"id":"1de7314e-7581-4cd2-9223-6f0c83a26e30","title":"SP - CAJATI","tipo":"Cebraspe","url":"\/dashboard\/details-assets\/1de7314e-7581-4cd2-9223-6f0c83a26e30","coordinates":[-48.105,-24.726361]},{"id":"7d83cbea-d201-4a66-9022-e6a44fd95722","title":"SP - CAJAMAR","tipo":"Cebraspe","url":"\/dashboard\/details-assets\/7d83cbea-d201-4a66-9022-e6a44fd95722","coordinates":[-46.88292,-23.360971]},{"id":"75607bfd-95d6-4dc4-b808-9e548196d63a","title":"SP - CAIEIRAS","tipo":"Cebraspe","url":"\/dashboard\/details-assets\/75607bfd-95d6-4dc4-b808-9e548196d63a","coordinates":[-46.744101,-23.362116]},{"id":"141701e4-9c9b-4569-a5f7-603e06deaea4","title":"SP - CACHOEIRA PAULISTA","tipo":"Cebraspe","url":"\/dashboard\/details-assets\/141701e4-9c9b-4569-a5f7-603e06deaea4","coordinates":[-45.01063,-22.664754]},{"id":"0b0ef8ae-2e3b-4db1-bd4f-54b7d450f7d9","title":"SP - CACAPAVA","tipo":"Cebraspe","url":"\/dashboard\/details-assets\/0b0ef8ae-2e3b-4db1-bd4f-54b7d450f7d9","coordinates":[-45.70773,-23.100664]},{"id":"96fb9d87-9147-4243-b1dc-3ef655d36f3c","title":"SP - CABREUVA","tipo":"Cebraspe","url":"\/dashboard\/details-assets\/96fb9d87-9147-4243-b1dc-3ef655d36f3c","coordinates":[-47.133658,-23.312674]},{"id":"09c44936-b85a-4757-bf99-d4d91c5c4f64","title":"SP - BRAGANCA PAULISTA","tipo":"Cebraspe","url":"\/dashboard\/details-assets\/09c44936-b85a-4757-bf99-d4d91c5c4f64","coordinates":[-46.542333,-22.956895]},{"id":"3710878a-ae2c-4e44-816a-7d1e97630ddb","title":"SP - BOTUCATU","tipo":"Cebraspe","url":"\/dashboard\/details-assets\/3710878a-ae2c-4e44-816a-7d1e97630ddb","coordinates":[-48.441289,-22.888381]},{"id":"5bc3456d-2815-40f1-b629-796c25979409","title":"SP - BOITUVA","tipo":"Cebraspe","url":"\/dashboard\/details-assets\/5bc3456d-2815-40f1-b629-796c25979409","coordinates":[-47.671473,-23.281944]},{"id":"b904f782-ae8e-4c58-9789-62d611ce87bc","title":"SP - BIRIGUI","tipo":"Cebraspe","url":"\/dashboard\/details-assets\/b904f782-ae8e-4c58-9789-62d611ce87bc","coordinates":[-50.339329,-21.292392]},{"id":"9ffec7fc-3fc1-431e-80ce-7b2f6915e569","title":"SP - BERTIOGA","tipo":"Cebraspe","url":"\/dashboard\/details-assets\/9ffec7fc-3fc1-431e-80ce-7b2f6915e569","coordinates":[-46.136538,-23.854014]},{"id":"94e72dde-cae2-47a5-9626-4e8aa9271805","title":"SP - BEBEDOURO","tipo":"Cebraspe","url":"\/dashboard\/details-assets\/94e72dde-cae2-47a5-9626-4e8aa9271805","coordinates":[-48.477362,-20.949816]},{"id":"b1bd8039-130a-4207-8674-055bca7f074f","title":"SP - BATATAIS","tipo":"Cebraspe","url":"\/dashboard\/details-assets\/b1bd8039-130a-4207-8674-055bca7f074f","coordinates":[-47.586107,-20.891929]},{"id":"8f627b2b-958e-430f-99a4-4a1b6c2cbcf4","title":"SP - BAURU","tipo":"Cebraspe","url":"\/dashboard\/details-assets\/8f627b2b-958e-430f-99a4-4a1b6c2cbcf4","coordinates":[-49.083001,-22.325122]},{"id":"ccb17b85-efa1-4df0-9d54-5de7bace3db3","title":"SP - BARUERI","tipo":"Cebraspe","url":"\/dashboard\/details-assets\/ccb17b85-efa1-4df0-9d54-5de7bace3db3","coordinates":[-46.874653,-23.508902]},{"id":"fcb18f79-5a0c-4764-99e0-a07ca3eac4f8","title":"SP - BARRINHA","tipo":"Cebraspe","url":"\/dashboard\/details-assets\/fcb18f79-5a0c-4764-99e0-a07ca3eac4f8","coordinates":[-48.162814,-21.191743]},{"id":"eb34d14d-9ec8-47b9-82b2-2a8732909f2c","title":"SP - BARRETOS","tipo":"Cebraspe","url":"\/dashboard\/details-assets\/eb34d14d-9ec8-47b9-82b2-2a8732909f2c","coordinates":[-48.567378,-20.558456]},{"id":"259109e3-c1b3-4491-9f75-178a4600bbfa","title":"SP - BARRA DO TURVO","tipo":"Cebraspe","url":"\/dashboard\/details-assets\/259109e3-c1b3-4491-9f75-178a4600bbfa","coordinates":[-48.545153,-24.876025]},{"id":"c49597fa-1f15-4bf5-aaaf-50d02dac3ad3","title":"SP - BARRA BONITA","tipo":"Cebraspe","url":"\/dashboard\/details-assets\/c49597fa-1f15-4bf5-aaaf-50d02dac3ad3","coordinates":[-48.552414,-22.490671]},{"id":"4474b072-529e-467c-973f-4d4cd91e2f8d","title":"SP - AVARE","tipo":"Cebraspe","url":"\/dashboard\/details-assets\/4474b072-529e-467c-973f-4d4cd91e2f8d","coordinates":[-48.923263,-23.103193]},{"id":"7369d66b-452c-4f7d-836e-c51f463b8428","title":"SP - AURIFLAMA","tipo":"Cebraspe","url":"\/dashboard\/details-assets\/7369d66b-452c-4f7d-836e-c51f463b8428","coordinates":[-50.553959,-20.687335]},{"id":"eacf99c2-79f6-428b-877e-613d9d6c4abc","title":"SP - ATIBAIA","tipo":"Cebraspe","url":"\/dashboard\/details-assets\/eacf99c2-79f6-428b-877e-613d9d6c4abc","coordinates":[-46.555063,-23.116308]},{"id":"8584adfd-e2a6-4015-929a-dcc8e3057378","title":"SP - ASSIS","tipo":"Cebraspe","url":"\/dashboard\/details-assets\/8584adfd-e2a6-4015-929a-dcc8e3057378","coordinates":[-50.41751,-22.662835]},{"id":"9b5f74c2-4d0e-4d0e-885b-5886a0f6be15","title":"SP - ARUJA","tipo":"Cebraspe","url":"\/dashboard\/details-assets\/9b5f74c2-4d0e-4d0e-885b-5886a0f6be15","coordinates":[-46.32049,-23.395827]},{"id":"54aae259-af9f-4a98-9a82-9d1cc91ccf6d","title":"SP - ARTUR NOGUEIRA","tipo":"Cebraspe","url":"\/dashboard\/details-assets\/54aae259-af9f-4a98-9a82-9d1cc91ccf6d","coordinates":[-47.164301,-22.571343]},{"id":"cf022c2d-9322-430f-a396-407559e00db4","title":"SP - ARARAS","tipo":"Cebraspe","url":"\/dashboard\/details-assets\/cf022c2d-9322-430f-a396-407559e00db4","coordinates":[-47.38583,-22.357087]},{"id":"99e0a943-8008-440c-b0a2-29113d6167d9","title":"SP - ARARAQUARA","tipo":"Cebraspe","url":"\/dashboard\/details-assets\/99e0a943-8008-440c-b0a2-29113d6167d9","coordinates":[-48.17444,-21.790359]},{"id":"4dc053e5-b34c-4899-bf89-bcd6f6dcb5e4","title":"SP - ARACOIABA DA SERRA","tipo":"Cebraspe","url":"\/dashboard\/details-assets\/4dc053e5-b34c-4899-bf89-bcd6f6dcb5e4","coordinates":[-47.587243,-23.50732]},{"id":"2f62f3ea-86b7-4a40-9dad-8921275b23c2","title":"SP - ARACATUBA","tipo":"Cebraspe","url":"\/dashboard\/details-assets\/2f62f3ea-86b7-4a40-9dad-8921275b23c2","coordinates":[-50.439226,-21.205476]},{"id":"c36f69db-8906-4168-a9f6-fc2fac536855","title":"SP - APIAI","tipo":"Cebraspe","url":"\/dashboard\/details-assets\/c36f69db-8906-4168-a9f6-fc2fac536855","coordinates":[-48.84866,-24.513316]},{"id":"7fe14c94-9aa2-4953-b486-f32f48c6d046","title":"SP - ANDRADINA","tipo":"Cebraspe","url":"\/dashboard\/details-assets\/7fe14c94-9aa2-4953-b486-f32f48c6d046","coordinates":[-51.378848,-20.901464]},{"id":"c180229d-a97c-493c-9c9c-aa979b3d75ea","title":"SP - APARECIDA","tipo":"Cebraspe","url":"\/dashboard\/details-assets\/c180229d-a97c-493c-9c9c-aa979b3d75ea","coordinates":[-45.229429,-22.848154]},{"id":"08f5d4ac-306d-4bb5-b485-be087e24f908","title":"SP - AMPARO","tipo":"Cebraspe","url":"\/dashboard\/details-assets\/08f5d4ac-306d-4bb5-b485-be087e24f908","coordinates":[-46.765086,-22.699389]},{"id":"34cc7a45-76f2-426e-a39b-b247b05602de","title":"SP - AMERICANA","tipo":"Cebraspe","url":"\/dashboard\/details-assets\/34cc7a45-76f2-426e-a39b-b247b05602de","coordinates":[-47.330363,-22.740883]},{"id":"a7475783-88f2-4c1f-ad65-b2ab5d156fa8","title":"SP - AGUDOS","tipo":"Cebraspe","url":"\/dashboard\/details-assets\/a7475783-88f2-4c1f-ad65-b2ab5d156fa8","coordinates":[-48.990156,-22.474037]},{"id":"7bfcb863-b43f-433f-84af-a980f0711eb5","title":"SP - ADAMANTINA","tipo":"Cebraspe","url":"\/dashboard\/details-assets\/7bfcb863-b43f-433f-84af-a980f0711eb5","coordinates":[-51.102504,-21.685058]},{"id":"131f0583-63a2-4f28-a22f-10af0683451b","title":"SE - UMBAUBA","tipo":"Cebraspe","url":"\/dashboard\/details-assets\/131f0583-63a2-4f28-a22f-10af0683451b","coordinates":[-37.659948,-11.416068]},{"id":"7f2b0732-3290-48ee-a283-cda479a0e458","title":"SE - TOBIAS BARRETO","tipo":"Cebraspe","url":"\/dashboard\/details-assets\/7f2b0732-3290-48ee-a283-cda479a0e458","coordinates":[-38.000521,-11.185188]},{"id":"65f8588a-4e0d-4c5f-9207-97e1794b2d82","title":"SE - SIMAO DIAS","tipo":"Cebraspe","url":"\/dashboard\/details-assets\/65f8588a-4e0d-4c5f-9207-97e1794b2d82","coordinates":[-37.809338,-10.739792]},{"id":"b568511c-d9d5-4dd0-8029-544cf6780052","title":"SE - RIACHUELO","tipo":"Cebraspe","url":"\/dashboard\/details-assets\/b568511c-d9d5-4dd0-8029-544cf6780052","coordinates":[-37.187039,-10.732649]},{"id":"f81f7d7d-755b-4007-b556-f2155cbed8c7","title":"SE - SAO CRISTOVAO","tipo":"Cebraspe","url":"\/dashboard\/details-assets\/f81f7d7d-755b-4007-b556-f2155cbed8c7","coordinates":[-37.205934,-11.012236]},{"id":"c053e8b4-d504-4482-9820-429c52851f14","title":"SE - PROPRIA","tipo":"Cebraspe","url":"\/dashboard\/details-assets\/c053e8b4-d504-4482-9820-429c52851f14","coordinates":[-36.837185,-10.212228]},{"id":"93dc8849-d6fb-40dd-9cfc-a30b18d74b17","title":"SE - POCO VERDE","tipo":"Cebraspe","url":"\/dashboard\/details-assets\/93dc8849-d6fb-40dd-9cfc-a30b18d74b17","coordinates":[-38.173065,-10.717071]},{"id":"e5221a98-556f-4f66-b5a9-b15a7d9e7eb1","title":"SE - PORTO DA FOLHA","tipo":"Cebraspe","url":"\/dashboard\/details-assets\/e5221a98-556f-4f66-b5a9-b15a7d9e7eb1","coordinates":[-37.275759,-9.919741]},{"id":"fb0aef03-c328-420a-9f2e-00c3a403b674","title":"SE - POCO REDONDO","tipo":"Cebraspe","url":"\/dashboard\/details-assets\/fb0aef03-c328-420a-9f2e-00c3a403b674","coordinates":[-37.723768,-9.822267]},{"id":"e211a420-08b6-4ed2-9ad9-3fd0786f72b7","title":"SE - NOSSA SENHORA DO SOCORRO","tipo":"Cebraspe","url":"\/dashboard\/details-assets\/e211a420-08b6-4ed2-9ad9-3fd0786f72b7","coordinates":[-37.126979,-10.853164]},{"id":"93d69cab-4c77-4658-81e6-9f8df00c8a41","title":"SE - NOSSA SENHORA DAS DORES","tipo":"Cebraspe","url":"\/dashboard\/details-assets\/93d69cab-4c77-4658-81e6-9f8df00c8a41","coordinates":[-37.196622,-10.485792]},{"id":"849df969-23a8-45dd-9340-d2bad5d64bd9","title":"SE - NOSSA SENHORA DA GLORIA","tipo":"Cebraspe","url":"\/dashboard\/details-assets\/849df969-23a8-45dd-9340-d2bad5d64bd9","coordinates":[-37.421281,-10.215655]},{"id":"026ea0a0-d6a1-4a6a-b290-f385dd3adf64","title":"SE - NOSSA SENHORA APARECIDA","tipo":"Cebraspe","url":"\/dashboard\/details-assets\/026ea0a0-d6a1-4a6a-b290-f385dd3adf64","coordinates":[-37.454432,-10.397443]},{"id":"53861f9d-2e3f-4fad-8283-d106a941e835","title":"SE - NEOPOLIS","tipo":"Cebraspe","url":"\/dashboard\/details-assets\/53861f9d-2e3f-4fad-8283-d106a941e835","coordinates":[-36.585281,-10.321944]},{"id":"d03b167e-1a57-4d41-8d72-9186e5148fb7","title":"SE - MONTE ALEGRE DE SERGIPE","tipo":"Cebraspe","url":"\/dashboard\/details-assets\/d03b167e-1a57-4d41-8d72-9186e5148fb7","coordinates":[-37.561432,-10.028255]},{"id":"4022e62e-9fa5-491b-b870-efb06ecb638a","title":"SE - MARUIM","tipo":"Cebraspe","url":"\/dashboard\/details-assets\/4022e62e-9fa5-491b-b870-efb06ecb638a","coordinates":[-37.085935,-10.731196]},{"id":"09f185d3-202c-4cf2-8a51-5eb92b9c2b0f","title":"SE - LARANJEIRAS","tipo":"Cebraspe","url":"\/dashboard\/details-assets\/09f185d3-202c-4cf2-8a51-5eb92b9c2b0f","coordinates":[-37.167937,-10.804856]},{"id":"f2d648b4-8282-47e7-8cce-c1dc8d65a409","title":"SE - JAPARATUBA","tipo":"Cebraspe","url":"\/dashboard\/details-assets\/f2d648b4-8282-47e7-8cce-c1dc8d65a409","coordinates":[-36.942008,-10.577323]},{"id":"37596719-6590-46fd-b830-69fac9f606f4","title":"SE - LAGARTO","tipo":"Cebraspe","url":"\/dashboard\/details-assets\/37596719-6590-46fd-b830-69fac9f606f4","coordinates":[-37.666353,-10.915301]},{"id":"c40e5e07-70e3-487b-a75c-e24f8a8ef309","title":"SE - ITAPORANGA DAJUDA","tipo":"Cebraspe","url":"\/dashboard\/details-assets\/c40e5e07-70e3-487b-a75c-e24f8a8ef309","coordinates":[-37.307827,-10.996733]},{"id":"65bb4be7-ad2b-4122-8185-b79fba1b7b53","title":"SE - ITABAIANA","tipo":"Cebraspe","url":"\/dashboard\/details-assets\/65bb4be7-ad2b-4122-8185-b79fba1b7b53","coordinates":[-37.426861,-10.685716]},{"id":"b51dbd67-cdb2-40f2-a8f4-08acaf0943e5","title":"SE - ITABAIANINHA","tipo":"Cebraspe","url":"\/dashboard\/details-assets\/b51dbd67-cdb2-40f2-a8f4-08acaf0943e5","coordinates":[-37.787411,-11.276785]},{"id":"b1d5810e-eb2e-468d-a54c-10938141e612","title":"SE - INDIAROBA","tipo":"Cebraspe","url":"\/dashboard\/details-assets\/b1d5810e-eb2e-468d-a54c-10938141e612","coordinates":[-37.515095,-11.518507]},{"id":"c63373be-1929-42c1-9b91-5d15c033538d","title":"SE - GARARU","tipo":"Cebraspe","url":"\/dashboard\/details-assets\/c63373be-1929-42c1-9b91-5d15c033538d","coordinates":[-37.084372,-9.967351]},{"id":"9164b09a-369e-4cf7-95b3-d2554486df4e","title":"SE - ESTANCIA","tipo":"Cebraspe","url":"\/dashboard\/details-assets\/9164b09a-369e-4cf7-95b3-d2554486df4e","coordinates":[-37.440011,-11.267949]},{"id":"8f2bfdd0-b6b0-4fc9-a68a-f887c587e598","title":"SE - CARMOPOLIS","tipo":"Cebraspe","url":"\/dashboard\/details-assets\/8f2bfdd0-b6b0-4fc9-a68a-f887c587e598","coordinates":[-36.989078,-10.645303]},{"id":"f685e3fb-30a7-4a6e-ae55-d0c209a265cf","title":"SE - CARIRA","tipo":"Cebraspe","url":"\/dashboard\/details-assets\/f685e3fb-30a7-4a6e-ae55-d0c209a265cf","coordinates":[-37.701919,-10.358017]},{"id":"d4b5bdc3-c690-475b-a4d9-fc9775d17c9c","title":"SE - CAPELA","tipo":"Cebraspe","url":"\/dashboard\/details-assets\/d4b5bdc3-c690-475b-a4d9-fc9775d17c9c","coordinates":[-37.054833,-10.5061]},{"id":"b3257df7-f8c0-4080-9ebb-e8782d2f4d05","title":"SE - CANINDE DE SAO FRANCISCO","tipo":"Cebraspe","url":"\/dashboard\/details-assets\/b3257df7-f8c0-4080-9ebb-e8782d2f4d05","coordinates":[-37.822052,-9.64847]},{"id":"3a2ef481-73c3-4e5f-8e8e-224102b10dcc","title":"SE - BOQUIM","tipo":"Cebraspe","url":"\/dashboard\/details-assets\/3a2ef481-73c3-4e5f-8e8e-224102b10dcc","coordinates":[-37.623573,-11.146392]},{"id":"46cf2b01-dee1-48ab-b8e5-4ef08cc5b191","title":"SE - CAMPO DO BRITO","tipo":"Cebraspe","url":"\/dashboard\/details-assets\/46cf2b01-dee1-48ab-b8e5-4ef08cc5b191","coordinates":[-37.496356,-10.743335]},{"id":"87729e78-46f7-47ca-a937-dcfed66907a1","title":"SE - AREIA BRANCA","tipo":"Cebraspe","url":"\/dashboard\/details-assets\/87729e78-46f7-47ca-a937-dcfed66907a1","coordinates":[-37.324314,-10.776843]},{"id":"3ff8d3a3-059a-4c28-a74b-6febf9e62367","title":"SE - ARACAJU","tipo":"Cebraspe","url":"\/dashboard\/details-assets\/3ff8d3a3-059a-4c28-a74b-6febf9e62367","coordinates":[-37.073082,-10.947247]},{"id":"a5043256-35a7-4111-b7c6-ab4cb2cdc51f","title":"SC - XANXERE","tipo":"Cebraspe","url":"\/dashboard\/details-assets\/a5043256-35a7-4111-b7c6-ab4cb2cdc51f","coordinates":[-52.404667,-26.874584]},{"id":"7a7e1998-b893-4ceb-a1c1-ddc4302a427a","title":"SC - XAXIM","tipo":"Cebraspe","url":"\/dashboard\/details-assets\/7a7e1998-b893-4ceb-a1c1-ddc4302a427a","coordinates":[-52.534933,-26.963719]},{"id":"e5af6825-4ce7-47e7-a6f4-39bbfdfdba3d","title":"SC - VIDEIRA","tipo":"Cebraspe","url":"\/dashboard\/details-assets\/e5af6825-4ce7-47e7-a6f4-39bbfdfdba3d","coordinates":[-51.151705,-27.006129]},{"id":"e41a2eaf-8ad0-48c8-b821-25461b30deda","title":"SC - TIMBO","tipo":"Cebraspe","url":"\/dashboard\/details-assets\/e41a2eaf-8ad0-48c8-b821-25461b30deda","coordinates":[-49.277712,-26.822903]},{"id":"4a54464f-58da-4c06-b545-01b6aa0c65bd","title":"SC - TUBARAO","tipo":"Cebraspe","url":"\/dashboard\/details-assets\/4a54464f-58da-4c06-b545-01b6aa0c65bd","coordinates":[-49.005268,-28.480034]},{"id":"4de124ac-ea59-4820-b04a-a16cc4622211","title":"SC - TIJUCAS","tipo":"Cebraspe","url":"\/dashboard\/details-assets\/4de124ac-ea59-4820-b04a-a16cc4622211","coordinates":[-48.632071,-27.239454]},{"id":"8fcf4ced-e501-4086-a58b-357799ed1b98","title":"SC - TAIO","tipo":"Cebraspe","url":"\/dashboard\/details-assets\/8fcf4ced-e501-4086-a58b-357799ed1b98","coordinates":[-50.005096,-27.117937]},{"id":"8a18689a-e6b1-42cd-ad06-cc6e5aa9a57b","title":"SC - SEARA","tipo":"Cebraspe","url":"\/dashboard\/details-assets\/8a18689a-e6b1-42cd-ad06-cc6e5aa9a57b","coordinates":[-52.307093,-27.14266]},{"id":"e739b443-9a07-4eac-a53c-412a875991aa","title":"SC - SOMBRIO","tipo":"Cebraspe","url":"\/dashboard\/details-assets\/e739b443-9a07-4eac-a53c-412a875991aa","coordinates":[-49.63421,-29.109133]},{"id":"09c40d61-3c6d-44c8-8ab8-59758eaa6a7a","title":"SC - SAO MIGUEL DO OESTE","tipo":"Cebraspe","url":"\/dashboard\/details-assets\/09c40d61-3c6d-44c8-8ab8-59758eaa6a7a","coordinates":[-53.518839,-26.726427]},{"id":"9dcc1e62-f002-458b-9ae2-ddddca8c03bd","title":"SC - SAO LOURENCO DO OESTE","tipo":"Cebraspe","url":"\/dashboard\/details-assets\/9dcc1e62-f002-458b-9ae2-ddddca8c03bd","coordinates":[-52.852705,-26.354526]},{"id":"677e6d20-3e66-4d93-8466-582cf0891fd9","title":"SC - SAO JOSE","tipo":"Cebraspe","url":"\/dashboard\/details-assets\/677e6d20-3e66-4d93-8466-582cf0891fd9","coordinates":[-48.642802,-27.610088]},{"id":"bb930751-1272-4acc-a703-3ab49b4d0958","title":"SC - SAO JOAQUIM","tipo":"Cebraspe","url":"\/dashboard\/details-assets\/bb930751-1272-4acc-a703-3ab49b4d0958","coordinates":[-49.937587,-28.292455]},{"id":"ed2626ab-a796-4baa-8ad3-430282e69c7d","title":"SC - SAO FRANCISCO DO SUL","tipo":"Cebraspe","url":"\/dashboard\/details-assets\/ed2626ab-a796-4baa-8ad3-430282e69c7d","coordinates":[-48.637571,-26.244018]},{"id":"ce7e389a-be03-4153-b8d3-8553107e7356","title":"SC - SAO BENTO DO SUL","tipo":"Cebraspe","url":"\/dashboard\/details-assets\/ce7e389a-be03-4153-b8d3-8553107e7356","coordinates":[-49.383557,-26.250037]},{"id":"f7209475-6ad2-469e-bdf5-22a4f5705602","title":"SC - RIO NEGRINHO","tipo":"Cebraspe","url":"\/dashboard\/details-assets\/f7209475-6ad2-469e-bdf5-22a4f5705602","coordinates":[-49.517295,-26.255325]},{"id":"e39f0a86-5973-477c-8d37-90a443d0123a","title":"SC - RIO DO SUL","tipo":"Cebraspe","url":"\/dashboard\/details-assets\/e39f0a86-5973-477c-8d37-90a443d0123a","coordinates":[-49.643238,-27.217903]},{"id":"fbe04a29-8ff4-4a69-9733-5d36c7fe4e00","title":"SC - QUILOMBO","tipo":"Cebraspe","url":"\/dashboard\/details-assets\/fbe04a29-8ff4-4a69-9733-5d36c7fe4e00","coordinates":[-52.72761,-26.740056]},{"id":"d93d746f-8150-4b9b-bd0d-1a19b4328b96","title":"SC - PORTO UNIAO","tipo":"Cebraspe","url":"\/dashboard\/details-assets\/d93d746f-8150-4b9b-bd0d-1a19b4328b96","coordinates":[-51.08171,-26.238912]},{"id":"8f9da648-a4c6-42ee-a758-a89b3cea56b0","title":"SC - PALHOCA","tipo":"Cebraspe","url":"\/dashboard\/details-assets\/8f9da648-a4c6-42ee-a758-a89b3cea56b0","coordinates":[-48.670288,-27.647044]},{"id":"080f2495-a005-43bc-b071-9a352ad9f0d8","title":"SC - PALMITOS","tipo":"Cebraspe","url":"\/dashboard\/details-assets\/080f2495-a005-43bc-b071-9a352ad9f0d8","coordinates":[-53.159223,-27.071789]},{"id":"440bdce0-c863-419d-bd37-66c3e9a93ac5","title":"SC - ORLEANS","tipo":"Cebraspe","url":"\/dashboard\/details-assets\/440bdce0-c863-419d-bd37-66c3e9a93ac5","coordinates":[-49.291426,-28.360469]},{"id":"32374e8a-02de-41c7-be60-7a8ecbf4557c","title":"SC - NAVEGANTES","tipo":"Cebraspe","url":"\/dashboard\/details-assets\/32374e8a-02de-41c7-be60-7a8ecbf4557c","coordinates":[-48.649183,-26.897439]},{"id":"0cbe0bfe-6c75-4007-8821-c24d18ad90f6","title":"SC - MARAVILHA","tipo":"Cebraspe","url":"\/dashboard\/details-assets\/0cbe0bfe-6c75-4007-8821-c24d18ad90f6","coordinates":[-53.174819,-26.761624]},{"id":"5e5b33c5-efdc-4dbf-ad6b-04819063d60f","title":"SC - MAFRA","tipo":"Cebraspe","url":"\/dashboard\/details-assets\/5e5b33c5-efdc-4dbf-ad6b-04819063d60f","coordinates":[-49.801038,-26.115228]},{"id":"9c41d793-0ae7-47ff-81fa-6c5e28f6725b","title":"SC - LAGES","tipo":"Cebraspe","url":"\/dashboard\/details-assets\/9c41d793-0ae7-47ff-81fa-6c5e28f6725b","coordinates":[-50.330222,-27.817259]},{"id":"b4ba055c-b817-44fe-a221-ab6986c9c1f1","title":"SC - LAGUNA","tipo":"Cebraspe","url":"\/dashboard\/details-assets\/b4ba055c-b817-44fe-a221-ab6986c9c1f1","coordinates":[-48.781389,-28.483586]},{"id":"d4fe0250-dd03-4b11-8522-22f3fba2016f","title":"SC - JOINVILLE","tipo":"Cebraspe","url":"\/dashboard\/details-assets\/d4fe0250-dd03-4b11-8522-22f3fba2016f","coordinates":[-48.849409,-26.304518]},{"id":"5c3065f8-49bf-4d73-8162-aac20bd76f9a","title":"SC - JOACABA","tipo":"Cebraspe","url":"\/dashboard\/details-assets\/5c3065f8-49bf-4d73-8162-aac20bd76f9a","coordinates":[-51.50669,-27.173945]},{"id":"3162a20b-85d3-44d5-8b78-5497403ea389","title":"SC - JARAGUA DO SUL","tipo":"Cebraspe","url":"\/dashboard\/details-assets\/3162a20b-85d3-44d5-8b78-5497403ea389","coordinates":[-49.076299,-26.490484]},{"id":"c06715af-3613-4a09-97f5-f55cdf2b176c","title":"SC - ITUPORANGA","tipo":"Cebraspe","url":"\/dashboard\/details-assets\/c06715af-3613-4a09-97f5-f55cdf2b176c","coordinates":[-49.603415,-27.414858]},{"id":"5340a953-98eb-4a7e-ba5d-612a54bb0285","title":"SC - ITAPIRANGA","tipo":"Cebraspe","url":"\/dashboard\/details-assets\/5340a953-98eb-4a7e-ba5d-612a54bb0285","coordinates":[-53.714802,-27.175375]},{"id":"1fb1e806-3fec-4fdb-831f-7c348ced8b08","title":"SC - ITAJAI","tipo":"Cebraspe","url":"\/dashboard\/details-assets\/1fb1e806-3fec-4fdb-831f-7c348ced8b08","coordinates":[-48.670913,-26.910705]},{"id":"e83ea3b6-55f7-401e-99e4-c0ca543bd9f7","title":"SC - ITAPEMA","tipo":"Cebraspe","url":"\/dashboard\/details-assets\/e83ea3b6-55f7-401e-99e4-c0ca543bd9f7","coordinates":[-48.617399,-27.095938]},{"id":"aa9fc740-73c0-4045-9ff9-bd6e0d99a587","title":"SC - IMBITUBA","tipo":"Cebraspe","url":"\/dashboard\/details-assets\/aa9fc740-73c0-4045-9ff9-bd6e0d99a587","coordinates":[-48.669284,-28.239951]},{"id":"89ae49c5-09ca-4621-be9f-eff3ddfaf3e2","title":"SC - INDAIAL","tipo":"Cebraspe","url":"\/dashboard\/details-assets\/89ae49c5-09ca-4621-be9f-eff3ddfaf3e2","coordinates":[-49.24014,-26.906256]},{"id":"15bd88ee-4540-4a20-910e-fc31f573ee9a","title":"SC - ICARA","tipo":"Cebraspe","url":"\/dashboard\/details-assets\/15bd88ee-4540-4a20-910e-fc31f573ee9a","coordinates":[-49.309144,-28.71371]},{"id":"025c7d06-0b4d-49aa-b33a-4c87b84eee99","title":"SC - GAROPABA","tipo":"Cebraspe","url":"\/dashboard\/details-assets\/025c7d06-0b4d-49aa-b33a-4c87b84eee99","coordinates":[-48.6355,-28.024935]},{"id":"a004bf74-176d-4893-b1ff-c09a9e3f7b8e","title":"SC - GUARAMIRIM","tipo":"Cebraspe","url":"\/dashboard\/details-assets\/a004bf74-176d-4893-b1ff-c09a9e3f7b8e","coordinates":[-48.992104,-26.474445]},{"id":"51f1c8cf-f313-4fa7-a8c5-38d63887a946","title":"SC - FRAIBURGO","tipo":"Cebraspe","url":"\/dashboard\/details-assets\/51f1c8cf-f313-4fa7-a8c5-38d63887a946","coordinates":[-50.925079,-27.023447]},{"id":"c8c6afa2-bd63-4868-94d6-f5cbcbb1dc7c","title":"SC - FLORIANOPOLIS","tipo":"Cebraspe","url":"\/dashboard\/details-assets\/c8c6afa2-bd63-4868-94d6-f5cbcbb1dc7c","coordinates":[-48.547637,-27.587796]},{"id":"8d946c1c-c91f-47c4-b010-637cfab8f722","title":"SC - DIONISIO CERQUEIRA","tipo":"Cebraspe","url":"\/dashboard\/details-assets\/8d946c1c-c91f-47c4-b010-637cfab8f722","coordinates":[-53.631395,-26.266489]},{"id":"e0464280-f52b-4ba7-98af-2d21fe4b6084","title":"SC - CURITIBANOS","tipo":"Cebraspe","url":"\/dashboard\/details-assets\/e0464280-f52b-4ba7-98af-2d21fe4b6084","coordinates":[-50.582601,-27.282983]},{"id":"5e417a68-5235-4318-9bb4-a0767f3a7c25","title":"SC - CRICIUMA","tipo":"Cebraspe","url":"\/dashboard\/details-assets\/5e417a68-5235-4318-9bb4-a0767f3a7c25","coordinates":[-49.36594,-28.673572]},{"id":"283896b4-d6d2-4e8b-a553-55159b455454","title":"SC - CHAPECO","tipo":"Cebraspe","url":"\/dashboard\/details-assets\/283896b4-d6d2-4e8b-a553-55159b455454","coordinates":[-52.615699,-27.100934]},{"id":"9e81bca3-e62f-4864-bfa6-a0073d320be9","title":"SC - CONCORDIA","tipo":"Cebraspe","url":"\/dashboard\/details-assets\/9e81bca3-e62f-4864-bfa6-a0073d320be9","coordinates":[-52.023971,-27.233659]},{"id":"732c3617-a055-4296-9b10-165734b7c7e2","title":"SC - CANOINHAS","tipo":"Cebraspe","url":"\/dashboard\/details-assets\/732c3617-a055-4296-9b10-165734b7c7e2","coordinates":[-50.397849,-26.178807]},{"id":"fcaaa670-8dcc-4fa8-a918-a9f113d818ca","title":"SC - CAMBORIU","tipo":"Cebraspe","url":"\/dashboard\/details-assets\/fcaaa670-8dcc-4fa8-a918-a9f113d818ca","coordinates":[-48.649996,-27.026456]},{"id":"3e9ad19b-4136-4e47-b7b8-33b9a6026191","title":"SC - CAMPOS NOVOS","tipo":"Cebraspe","url":"\/dashboard\/details-assets\/3e9ad19b-4136-4e47-b7b8-33b9a6026191","coordinates":[-51.223673,-27.399053]},{"id":"be5b7635-d84a-45be-bd86-65cf42b509e0","title":"SC - CACADOR","tipo":"Cebraspe","url":"\/dashboard\/details-assets\/be5b7635-d84a-45be-bd86-65cf42b509e0","coordinates":[-51.019035,-26.775348]},{"id":"c9f012cf-bb76-442c-8a8e-bd987275fedf","title":"SC - BRUSQUE","tipo":"Cebraspe","url":"\/dashboard\/details-assets\/c9f012cf-bb76-442c-8a8e-bd987275fedf","coordinates":[-48.915163,-27.09831]},{"id":"dba06f50-91f1-4507-8e09-1a5d275b9eb5","title":"SC - BRACO DO NORTE","tipo":"Cebraspe","url":"\/dashboard\/details-assets\/dba06f50-91f1-4507-8e09-1a5d275b9eb5","coordinates":[-49.164548,-28.280039]},{"id":"6411f8a8-e035-4a48-92bd-bcad86c45798","title":"SC - BLUMENAU","tipo":"Cebraspe","url":"\/dashboard\/details-assets\/6411f8a8-e035-4a48-92bd-bcad86c45798","coordinates":[-49.057631,-26.916108]},{"id":"6e3ccd01-206d-479a-bbfc-734349d3a55e","title":"SC - BIGUACU","tipo":"Cebraspe","url":"\/dashboard\/details-assets\/6e3ccd01-206d-479a-bbfc-734349d3a55e","coordinates":[-48.654489,-27.494323]},{"id":"878984d4-e032-4154-9203-72b3ec91271c","title":"SC - BALNEARIO CAMBORIU","tipo":"Cebraspe","url":"\/dashboard\/details-assets\/878984d4-e032-4154-9203-72b3ec91271c","coordinates":[-48.634617,-26.991819]},{"id":"7e16d937-61d5-48f8-a952-7c097deaabfc","title":"RS - VIAMAO","tipo":"Cebraspe","url":"\/dashboard\/details-assets\/7e16d937-61d5-48f8-a952-7c097deaabfc","coordinates":[-51.098978,-30.065259]},{"id":"85f594fd-ce51-434a-a98e-837fcc8a6ebf","title":"SC - ARARANGUA","tipo":"Cebraspe","url":"\/dashboard\/details-assets\/85f594fd-ce51-434a-a98e-837fcc8a6ebf","coordinates":[-49.492301,-28.936119]},{"id":"fbdaacc9-f2f8-4792-8cb7-5dbf3bee8901","title":"RS - VERANOPOLIS","tipo":"Cebraspe","url":"\/dashboard\/details-assets\/fbdaacc9-f2f8-4792-8cb7-5dbf3bee8901","coordinates":[-51.552287,-28.933957]},{"id":"57fa0336-b368-47e1-a4cc-a5cedcfb3509","title":"RS - VENANCIO AIRES","tipo":"Cebraspe","url":"\/dashboard\/details-assets\/57fa0336-b368-47e1-a4cc-a5cedcfb3509","coordinates":[-52.19188,-29.611653]},{"id":"e64c7667-c5fe-49c1-a92a-75018ae8e299","title":"RS - VACARIA","tipo":"Cebraspe","url":"\/dashboard\/details-assets\/e64c7667-c5fe-49c1-a92a-75018ae8e299","coordinates":[-50.936599,-28.502354]},{"id":"88ef6b9c-a10c-4702-8975-49538f39662c","title":"RS - URUGUAIANA","tipo":"Cebraspe","url":"\/dashboard\/details-assets\/88ef6b9c-a10c-4702-8975-49538f39662c","coordinates":[-57.085843,-29.761912]},{"id":"728a650a-6517-478c-8cb4-42bc6c6b1876","title":"RS - TRES DE MAIO","tipo":"Cebraspe","url":"\/dashboard\/details-assets\/728a650a-6517-478c-8cb4-42bc6c6b1876","coordinates":[-54.235302,-27.77966]},{"id":"73381f1e-5f91-4af5-9262-4e20ab6736b5","title":"RS - TRES PASSOS","tipo":"Cebraspe","url":"\/dashboard\/details-assets\/73381f1e-5f91-4af5-9262-4e20ab6736b5","coordinates":[-53.929699,-27.45616]},{"id":"fbec9537-f7a4-4ac3-aa7f-ecb20b63da4f","title":"RS - TRAMANDAI","tipo":"Cebraspe","url":"\/dashboard\/details-assets\/fbec9537-f7a4-4ac3-aa7f-ecb20b63da4f","coordinates":[-50.130377,-29.987302]},{"id":"e0db15df-d7f3-4940-90be-cbba33f387ce","title":"RS - TORRES","tipo":"Cebraspe","url":"\/dashboard\/details-assets\/e0db15df-d7f3-4940-90be-cbba33f387ce","coordinates":[-49.730404,-29.335931]},{"id":"bae58931-c1cf-4945-9d0c-a93bc0577b5a","title":"RS - TEUTONIA","tipo":"Cebraspe","url":"\/dashboard\/details-assets\/bae58931-c1cf-4945-9d0c-a93bc0577b5a","coordinates":[-51.812817,-29.488914]},{"id":"26bcc6b2-ba69-40b0-925a-c9bb936e16f8","title":"RS - TAQUARI","tipo":"Cebraspe","url":"\/dashboard\/details-assets\/26bcc6b2-ba69-40b0-925a-c9bb936e16f8","coordinates":[-51.862776,-29.802801]},{"id":"3460da5f-a0cb-46a4-ae28-283719db4bc1","title":"RS - TAPEJARA","tipo":"Cebraspe","url":"\/dashboard\/details-assets\/3460da5f-a0cb-46a4-ae28-283719db4bc1","coordinates":[-52.022133,-28.084171]},{"id":"4bb9f115-30f8-49ee-894a-fa36eed2ff65","title":"RS - TAQUARA","tipo":"Cebraspe","url":"\/dashboard\/details-assets\/4bb9f115-30f8-49ee-894a-fa36eed2ff65","coordinates":[-50.781169,-29.650513]},{"id":"68dbb2ef-e8b5-40b0-9ba7-6bd7eef27449","title":"RS - SOLEDADE","tipo":"Cebraspe","url":"\/dashboard\/details-assets\/68dbb2ef-e8b5-40b0-9ba7-6bd7eef27449","coordinates":[-52.509866,-28.827738]},{"id":"a8dec8da-c012-40b7-b53e-167cdce30b1d","title":"RS - SOBRADINHO","tipo":"Cebraspe","url":"\/dashboard\/details-assets\/a8dec8da-c012-40b7-b53e-167cdce30b1d","coordinates":[-53.024918,-29.413061]},{"id":"7c342f88-1ecd-45b9-8086-72419de6bc9a","title":"RS - SARANDI","tipo":"Cebraspe","url":"\/dashboard\/details-assets\/7c342f88-1ecd-45b9-8086-72419de6bc9a","coordinates":[-52.923996,-27.931934]},{"id":"9f81aa63-83db-4c36-aecf-0ce637930e73","title":"RS - SAPUCAIA DO SUL","tipo":"Cebraspe","url":"\/dashboard\/details-assets\/9f81aa63-83db-4c36-aecf-0ce637930e73","coordinates":[-51.151875,-29.824868]},{"id":"f2b78ac5-bef7-4d11-a855-fb4d4130ed62","title":"RS - SAPIRANGA","tipo":"Cebraspe","url":"\/dashboard\/details-assets\/f2b78ac5-bef7-4d11-a855-fb4d4130ed62","coordinates":[-51.003623,-29.638554]},{"id":"058cd5bb-e915-4198-9cef-b79147c69718","title":"RS - SAO VICENTE DO SUL","tipo":"Cebraspe","url":"\/dashboard\/details-assets\/058cd5bb-e915-4198-9cef-b79147c69718","coordinates":[-54.676002,-29.692061]},{"id":"0ef87f70-c5be-4f2c-9c4e-3177de2e5d61","title":"RS - SAO SEPE","tipo":"Cebraspe","url":"\/dashboard\/details-assets\/0ef87f70-c5be-4f2c-9c4e-3177de2e5d61","coordinates":[-53.571821,-30.163989]},{"id":"ca6e03d6-7b52-42d1-b078-c210705cc4c5","title":"RS - SAO MARCOS","tipo":"Cebraspe","url":"\/dashboard\/details-assets\/ca6e03d6-7b52-42d1-b078-c210705cc4c5","coordinates":[-51.066707,-28.969849]},{"id":"34139223-1754-458d-858e-1506a5dfa5f7","title":"RS - SAO LOURENCO DO SUL","tipo":"Cebraspe","url":"\/dashboard\/details-assets\/34139223-1754-458d-858e-1506a5dfa5f7","coordinates":[-51.976915,-31.364024]},{"id":"6a2887fc-e75f-437c-b47d-2ac5657ddd0c","title":"RS - SAO LUIZ GONZAGA","tipo":"Cebraspe","url":"\/dashboard\/details-assets\/6a2887fc-e75f-437c-b47d-2ac5657ddd0c","coordinates":[-54.95966,-28.406647]},{"id":"c0767ad9-f175-4e4c-8ec2-38ea652911dd","title":"RS - SAO LEOPOLDO","tipo":"Cebraspe","url":"\/dashboard\/details-assets\/c0767ad9-f175-4e4c-8ec2-38ea652911dd","coordinates":[-51.146235,-29.765867]},{"id":"e2c6d229-ca2b-41e3-bc31-d1a2fc1e6680","title":"RS - SAO JOSE DO NORTE","tipo":"Cebraspe","url":"\/dashboard\/details-assets\/e2c6d229-ca2b-41e3-bc31-d1a2fc1e6680","coordinates":[-52.034202,-32.020609]},{"id":"263d7d7c-ac3a-406c-beb7-cd1fa285a58f","title":"RS - SAO JERONIMO","tipo":"Cebraspe","url":"\/dashboard\/details-assets\/263d7d7c-ac3a-406c-beb7-cd1fa285a58f","coordinates":[-51.725011,-29.962127]},{"id":"a33b61db-edc2-4268-bdde-017c46a324b6","title":"RS - SAO GABRIEL","tipo":"Cebraspe","url":"\/dashboard\/details-assets\/a33b61db-edc2-4268-bdde-017c46a324b6","coordinates":[-54.320478,-30.33676]},{"id":"d5d35b2e-179d-4c73-ad96-9d76ee828cc8","title":"RS - SAO BORJA","tipo":"Cebraspe","url":"\/dashboard\/details-assets\/d5d35b2e-179d-4c73-ad96-9d76ee828cc8","coordinates":[-53.77626,-27.843667]},{"id":"67994060-c9c3-47ba-8ab1-722e7c4ac64b","title":"RS - SANTO ANGELO","tipo":"Cebraspe","url":"\/dashboard\/details-assets\/67994060-c9c3-47ba-8ab1-722e7c4ac64b","coordinates":[-54.264143,-28.301938]},{"id":"2f87c9cf-69af-4d92-9827-4cce3c536c20","title":"RS - SANTO ANTONIO DA PATRULHA","tipo":"Cebraspe","url":"\/dashboard\/details-assets\/2f87c9cf-69af-4d92-9827-4cce3c536c20","coordinates":[-50.520986,-29.832034]},{"id":"b4974e1a-888b-46fb-87da-2dcdd185c486","title":"RS - SANTIAGO","tipo":"Cebraspe","url":"\/dashboard\/details-assets\/b4974e1a-888b-46fb-87da-2dcdd185c486","coordinates":[-54.869076,-29.19146]},{"id":"75275d54-2f81-42a3-93e5-d1d65c6cb894","title":"RS - SANTA VITORIA DO PALMAR","tipo":"Cebraspe","url":"\/dashboard\/details-assets\/75275d54-2f81-42a3-93e5-d1d65c6cb894","coordinates":[-53.366482,-33.521563]},{"id":"557ab23a-dfae-46a3-9bf5-7b818bcbc525","title":"RS - SANTA ROSA","tipo":"Cebraspe","url":"\/dashboard\/details-assets\/557ab23a-dfae-46a3-9bf5-7b818bcbc525","coordinates":[-54.480156,-27.870682]},{"id":"e1256f9d-3e40-45c4-8c8c-3f107aeaa71f","title":"RS - SANTANA DO LIVRAMENTO","tipo":"Cebraspe","url":"\/dashboard\/details-assets\/e1256f9d-3e40-45c4-8c8c-3f107aeaa71f","coordinates":[-55.53923,-30.877285]},{"id":"7881ca3b-0899-4a31-9709-12b55db59e6a","title":"RS - SANTA CRUZ DO SUL","tipo":"Cebraspe","url":"\/dashboard\/details-assets\/7881ca3b-0899-4a31-9709-12b55db59e6a","coordinates":[-52.434838,-29.722516]},{"id":"48671a15-560c-4b1f-962c-b0116f01bff4","title":"RS - SANTA MARIA","tipo":"Cebraspe","url":"\/dashboard\/details-assets\/48671a15-560c-4b1f-962c-b0116f01bff4","coordinates":[-53.809876,-29.690439]},{"id":"43162227-e296-499f-acca-473094497c47","title":"RS - ROSARIO DO SUL","tipo":"Cebraspe","url":"\/dashboard\/details-assets\/43162227-e296-499f-acca-473094497c47","coordinates":[-54.945761,-30.244033]},{"id":"d18ae9a9-f0ad-48d7-a4df-d0ba38e80314","title":"RS - RIO PARDO","tipo":"Cebraspe","url":"\/dashboard\/details-assets\/d18ae9a9-f0ad-48d7-a4df-d0ba38e80314","coordinates":[-52.379018,-29.985626]},{"id":"dd66c8d1-2548-478c-bc90-3a8e00f95d16","title":"RS - RIO GRANDE","tipo":"Cebraspe","url":"\/dashboard\/details-assets\/dd66c8d1-2548-478c-bc90-3a8e00f95d16","coordinates":[-52.08677,-32.050446]},{"id":"b5bb7ce2-cbf9-469b-b062-67815e1b872b","title":"RS - QUARAI","tipo":"Cebraspe","url":"\/dashboard\/details-assets\/b5bb7ce2-cbf9-469b-b062-67815e1b872b","coordinates":[-56.448809,-30.384513]},{"id":"6ef24985-fd58-49b0-808e-2f483460cd6c","title":"RS - PIRATINI","tipo":"Cebraspe","url":"\/dashboard\/details-assets\/6ef24985-fd58-49b0-808e-2f483460cd6c","coordinates":[-53.097831,-31.447788]},{"id":"064c8ff8-617b-4950-9005-5b404721ef35","title":"RS - PORTO ALEGRE","tipo":"Cebraspe","url":"\/dashboard\/details-assets\/064c8ff8-617b-4950-9005-5b404721ef35","coordinates":[-51.217658,-30.034647]},{"id":"3473d959-0b62-4951-90ab-65dd208c2056","title":"RS - PINHEIRO MACHADO","tipo":"Cebraspe","url":"\/dashboard\/details-assets\/3473d959-0b62-4951-90ab-65dd208c2056","coordinates":[-53.380833,-31.577778]},{"id":"a3f25715-712f-493e-b942-d071258ad86d","title":"RS - PELOTAS","tipo":"Cebraspe","url":"\/dashboard\/details-assets\/a3f25715-712f-493e-b942-d071258ad86d","coordinates":[-52.34432,-31.749965]},{"id":"90119dff-ad5d-460b-a814-861b9d93d147","title":"RS - PASSO FUNDO","tipo":"Cebraspe","url":"\/dashboard\/details-assets\/90119dff-ad5d-460b-a814-861b9d93d147","coordinates":[-52.407095,-28.261767]},{"id":"b78e1d82-5486-4c3a-847d-a2f7d9f2970f","title":"RS - PAROBE","tipo":"Cebraspe","url":"\/dashboard\/details-assets\/b78e1d82-5486-4c3a-847d-a2f7d9f2970f","coordinates":[-50.834866,-29.631749]},{"id":"d0c6869b-ff4d-424d-9dde-5251840a115b","title":"RS - PANAMBI","tipo":"Cebraspe","url":"\/dashboard\/details-assets\/d0c6869b-ff4d-424d-9dde-5251840a115b","coordinates":[-53.500265,-28.292731]},{"id":"452a83e0-b4a0-42e3-acbb-8487af1fd589","title":"RS - PALMEIRA DAS MISSOES","tipo":"Cebraspe","url":"\/dashboard\/details-assets\/452a83e0-b4a0-42e3-acbb-8487af1fd589","coordinates":[-53.314954,-27.900621]},{"id":"30f493af-9f48-4664-93a1-7fcb67c1aa5e","title":"RS - OSORIO","tipo":"Cebraspe","url":"\/dashboard\/details-assets\/30f493af-9f48-4664-93a1-7fcb67c1aa5e","coordinates":[-50.266798,-29.892697]},{"id":"9a133db2-5877-4438-b8c1-59cdd8f9d252","title":"RS - NOVO HAMBURGO","tipo":"Cebraspe","url":"\/dashboard\/details-assets\/9a133db2-5877-4438-b8c1-59cdd8f9d252","coordinates":[-51.12557,-29.691899]},{"id":"fa72b205-d6d5-4c94-84e4-9e26351e3c3e","title":"RS - NOVA PRATA","tipo":"Cebraspe","url":"\/dashboard\/details-assets\/fa72b205-d6d5-4c94-84e4-9e26351e3c3e","coordinates":[-51.608996,-28.783945]},{"id":"0f0fe687-40e4-41b0-9e56-67cc18fe4fff","title":"RS - NOVA PETROPOLIS","tipo":"Cebraspe","url":"\/dashboard\/details-assets\/0f0fe687-40e4-41b0-9e56-67cc18fe4fff","coordinates":[-51.111287,-29.375634]},{"id":"fff42098-28d2-44f0-9c34-555f1ce6276b","title":"RS - MONTENEGRO","tipo":"Cebraspe","url":"\/dashboard\/details-assets\/fff42098-28d2-44f0-9c34-555f1ce6276b","coordinates":[-51.461299,-29.688119]},{"id":"e8ff38f4-d7a9-4bc7-b16d-f3d50af0d2ac","title":"RS - MOSTARDAS","tipo":"Cebraspe","url":"\/dashboard\/details-assets\/e8ff38f4-d7a9-4bc7-b16d-f3d50af0d2ac","coordinates":[-50.919159,-31.108225]},{"id":"157fa27c-ca11-47b9-b688-ab66d3a71523","title":"RS - MARAU","tipo":"Cebraspe","url":"\/dashboard\/details-assets\/157fa27c-ca11-47b9-b688-ab66d3a71523","coordinates":[-52.196777,-28.448454]},{"id":"89fe367e-d8e7-40b8-827e-166072579e4f","title":"RS - MACHADINHO","tipo":"Cebraspe","url":"\/dashboard\/details-assets\/89fe367e-d8e7-40b8-827e-166072579e4f","coordinates":[-51.667507,-27.56814]},{"id":"079447f8-9166-42ce-bedf-50fa0e9bba64","title":"RS - LAJEADO","tipo":"Cebraspe","url":"\/dashboard\/details-assets\/079447f8-9166-42ce-bedf-50fa0e9bba64","coordinates":[-51.967828,-29.465454]},{"id":"17b1de17-b043-4d10-8488-e0c80284fa7b","title":"RS - LAGOA VERMELHA","tipo":"Cebraspe","url":"\/dashboard\/details-assets\/17b1de17-b043-4d10-8488-e0c80284fa7b","coordinates":[-51.527229,-28.20887]},{"id":"3382b0d8-9867-4b45-904c-0435e9466914","title":"RS - JULIO DE CASTILHOS","tipo":"Cebraspe","url":"\/dashboard\/details-assets\/3382b0d8-9867-4b45-904c-0435e9466914","coordinates":[-53.6831,-29.226449]},{"id":"57b75320-6221-4d53-9136-199eb79d1de8","title":"RS - JAGUARAO","tipo":"Cebraspe","url":"\/dashboard\/details-assets\/57b75320-6221-4d53-9136-199eb79d1de8","coordinates":[-53.377523,-32.563569]},{"id":"5e58fa0b-831b-483a-aca5-22d335e233d7","title":"RS - IVOTI","tipo":"Cebraspe","url":"\/dashboard\/details-assets\/5e58fa0b-831b-483a-aca5-22d335e233d7","coordinates":[-51.159574,-29.594157]},{"id":"c8d08c4e-c615-4c1b-afda-eb1aca61eecd","title":"RS - ITAQUI","tipo":"Cebraspe","url":"\/dashboard\/details-assets\/c8d08c4e-c615-4c1b-afda-eb1aca61eecd","coordinates":[-56.557133,-29.128637]},{"id":"d2de4fd8-1990-47d3-8c4a-daa39211c539","title":"RS - IMBE","tipo":"Cebraspe","url":"\/dashboard\/details-assets\/d2de4fd8-1990-47d3-8c4a-daa39211c539","coordinates":[-50.13058,-29.974778]},{"id":"c65a4aae-c565-40b4-8311-391e7d15f448","title":"RS - IGREJINHA","tipo":"Cebraspe","url":"\/dashboard\/details-assets\/c65a4aae-c565-40b4-8311-391e7d15f448","coordinates":[-50.798711,-29.57222]},{"id":"7c6f5f4c-89a9-48f9-aaeb-865c521b3507","title":"RS - IJUI","tipo":"Cebraspe","url":"\/dashboard\/details-assets\/7c6f5f4c-89a9-48f9-aaeb-865c521b3507","coordinates":[-53.918067,-28.388537]},{"id":"3b35b728-93da-4d75-b4cc-e1c9fdc0fe9a","title":"RS - HORIZONTINA","tipo":"Cebraspe","url":"\/dashboard\/details-assets\/3b35b728-93da-4d75-b4cc-e1c9fdc0fe9a","coordinates":[-54.308792,-27.630097]},{"id":"55df3a30-53a5-4d3a-b3a7-01bac052d4c5","title":"RS - GUAPORE","tipo":"Cebraspe","url":"\/dashboard\/details-assets\/55df3a30-53a5-4d3a-b3a7-01bac052d4c5","coordinates":[-51.890651,-28.849134]},{"id":"0cd35a6f-7bec-4e3e-a5b5-09e8fd4fd4d1","title":"RS - GUAIBA","tipo":"Cebraspe","url":"\/dashboard\/details-assets\/0cd35a6f-7bec-4e3e-a5b5-09e8fd4fd4d1","coordinates":[-51.314684,-30.108602]},{"id":"7e0670da-2ff3-4167-ae38-6fc17f705bd3","title":"RS - GRAVATAI","tipo":"Cebraspe","url":"\/dashboard\/details-assets\/7e0670da-2ff3-4167-ae38-6fc17f705bd3","coordinates":[-50.990793,-29.945519]},{"id":"3f6c3cd8-b4a1-4e09-9dd3-ba7a71c1cec7","title":"RS - GIRUA","tipo":"Cebraspe","url":"\/dashboard\/details-assets\/3f6c3cd8-b4a1-4e09-9dd3-ba7a71c1cec7","coordinates":[-54.35084,-28.029744]},{"id":"311d37f8-7808-444d-b089-fb089308e275","title":"RS - GETULIO VARGAS","tipo":"Cebraspe","url":"\/dashboard\/details-assets\/311d37f8-7808-444d-b089-fb089308e275","coordinates":[-52.249574,-27.875912]},{"id":"508ac94c-755b-4685-9161-c3ff1e4d980e","title":"RS - GARIBALDI","tipo":"Cebraspe","url":"\/dashboard\/details-assets\/508ac94c-755b-4685-9161-c3ff1e4d980e","coordinates":[-51.529548,-29.254549]},{"id":"198d0571-e3b9-4db1-8daa-9db75dc0a839","title":"RS - FARROUPILHA","tipo":"Cebraspe","url":"\/dashboard\/details-assets\/198d0571-e3b9-4db1-8daa-9db75dc0a839","coordinates":[-51.34835,-29.223679]},{"id":"15f35b5b-427c-4114-89fb-78835e753019","title":"RS - FREDERICO WESTPHALEN","tipo":"Cebraspe","url":"\/dashboard\/details-assets\/15f35b5b-427c-4114-89fb-78835e753019","coordinates":[-53.400777,-27.358882]},{"id":"2678df99-d6ff-4929-9485-4cc368be0296","title":"RS - ESTRELA","tipo":"Cebraspe","url":"\/dashboard\/details-assets\/2678df99-d6ff-4929-9485-4cc368be0296","coordinates":[-51.97026,-29.503472]},{"id":"3ca1897f-228c-428e-872b-fd083f6f7ea9","title":"RS - ESTEIO","tipo":"Cebraspe","url":"\/dashboard\/details-assets\/3ca1897f-228c-428e-872b-fd083f6f7ea9","coordinates":[-51.183662,-29.84623]},{"id":"1e983748-4da5-429a-bf43-2c05faf2c28a","title":"RS - ESTANCIA VELHA","tipo":"Cebraspe","url":"\/dashboard\/details-assets\/1e983748-4da5-429a-bf43-2c05faf2c28a","coordinates":[-51.174294,-29.650148]},{"id":"5229bdd5-1ba6-4d56-be0f-15f27210c7e7","title":"RS - ESPUMOSO","tipo":"Cebraspe","url":"\/dashboard\/details-assets\/5229bdd5-1ba6-4d56-be0f-15f27210c7e7","coordinates":[-52.841927,-28.731445]},{"id":"5909a52b-9a31-4118-853f-fddfc9043f5e","title":"RS - ERECHIM","tipo":"Cebraspe","url":"\/dashboard\/details-assets\/5909a52b-9a31-4118-853f-fddfc9043f5e","coordinates":[-52.275877,-27.633406]},{"id":"5e303c82-8357-4af4-996e-940913804774","title":"RS - ENCRUZILHADA DO SUL","tipo":"Cebraspe","url":"\/dashboard\/details-assets\/5e303c82-8357-4af4-996e-940913804774","coordinates":[-52.522045,-30.543657]},{"id":"d1ed624c-55bd-4db1-b847-6c4e5ad92970","title":"RS - ENCANTADO","tipo":"Cebraspe","url":"\/dashboard\/details-assets\/d1ed624c-55bd-4db1-b847-6c4e5ad92970","coordinates":[-51.873023,-29.239917]},{"id":"d1f93f24-9055-43c1-8ec2-6a41e76c3d98","title":"RS - ELDORADO DO SUL","tipo":"Cebraspe","url":"\/dashboard\/details-assets\/d1f93f24-9055-43c1-8ec2-6a41e76c3d98","coordinates":[-51.310419,-29.999293]},{"id":"2748b6f9-cbac-4e00-824d-0b41322dbd6f","title":"RS - DOIS IRMAOS","tipo":"Cebraspe","url":"\/dashboard\/details-assets\/2748b6f9-cbac-4e00-824d-0b41322dbd6f","coordinates":[-51.087619,-29.584159]},{"id":"007e8025-1f5d-423c-b485-a7a0f90c4f73","title":"RS - DOM PEDRITO","tipo":"Cebraspe","url":"\/dashboard\/details-assets\/007e8025-1f5d-423c-b485-a7a0f90c4f73","coordinates":[-54.67413,-30.981267]},{"id":"a186283e-637f-41f8-9952-00c38255b760","title":"RS - CRUZ ALTA","tipo":"Cebraspe","url":"\/dashboard\/details-assets\/a186283e-637f-41f8-9952-00c38255b760","coordinates":[-53.605355,-28.645488]},{"id":"8ea39016-f765-41cd-95d3-b8a7d221b881","title":"RS - CHARQUEADAS","tipo":"Cebraspe","url":"\/dashboard\/details-assets\/8ea39016-f765-41cd-95d3-b8a7d221b881","coordinates":[-51.625006,-29.9568]},{"id":"04abf667-c4b4-479b-baac-3b1ba66f4708","title":"RS - CAXIAS DO SUL","tipo":"Cebraspe","url":"\/dashboard\/details-assets\/04abf667-c4b4-479b-baac-3b1ba66f4708","coordinates":[-51.17886,-29.166899]},{"id":"480a8238-67b2-4efa-beb9-aa146a8e1028","title":"RS - CERRO LARGO","tipo":"Cebraspe","url":"\/dashboard\/details-assets\/480a8238-67b2-4efa-beb9-aa146a8e1028","coordinates":[-54.739997,-28.147841]},{"id":"315e3c27-7756-4ef7-8b9e-11c2a7b17a99","title":"RS - CARLOS BARBOSA","tipo":"Cebraspe","url":"\/dashboard\/details-assets\/315e3c27-7756-4ef7-8b9e-11c2a7b17a99","coordinates":[-51.503818,-29.298297]},{"id":"09f08542-011a-4661-a58b-f7067df5f456","title":"RS - CARAZINHO","tipo":"Cebraspe","url":"\/dashboard\/details-assets\/09f08542-011a-4661-a58b-f7067df5f456","coordinates":[-52.791897,-28.286511]},{"id":"e8711c65-544e-4bd0-b387-c89c6aed8dfa","title":"RS - CAPAO DO LEAO","tipo":"Cebraspe","url":"\/dashboard\/details-assets\/e8711c65-544e-4bd0-b387-c89c6aed8dfa","coordinates":[-52.487008,-31.766839]},{"id":"71684f96-75ab-4fc3-b307-c5194d7b6533","title":"RS - CAPAO DA CANOA","tipo":"Cebraspe","url":"\/dashboard\/details-assets\/71684f96-75ab-4fc3-b307-c5194d7b6533","coordinates":[-50.020022,-29.761467]},{"id":"3480ab09-800d-48f7-92b9-06a6070ae467","title":"RS - CANOAS","tipo":"Cebraspe","url":"\/dashboard\/details-assets\/3480ab09-800d-48f7-92b9-06a6070ae467","coordinates":[-51.18103,-29.918697]},{"id":"85b83b5d-e39f-49ce-bc90-d173d7dcb411","title":"RS - CANGUCU","tipo":"Cebraspe","url":"\/dashboard\/details-assets\/85b83b5d-e39f-49ce-bc90-d173d7dcb411","coordinates":[-52.676286,-31.39386]},{"id":"39380fa9-2c0f-462b-838f-f52478a20726","title":"RS - CANELA","tipo":"Cebraspe","url":"\/dashboard\/details-assets\/39380fa9-2c0f-462b-838f-f52478a20726","coordinates":[-50.814867,-29.357972]},{"id":"4dd19b11-eec4-4be7-be2c-11064221bdb4","title":"RS - CAMPO BOM","tipo":"Cebraspe","url":"\/dashboard\/details-assets\/4dd19b11-eec4-4be7-be2c-11064221bdb4","coordinates":[-51.05887,-29.675685]},{"id":"1ff0687a-3ca6-4557-8541-b48e7a7e1e92","title":"RS - CAMAQUA","tipo":"Cebraspe","url":"\/dashboard\/details-assets\/1ff0687a-3ca6-4557-8541-b48e7a7e1e92","coordinates":[-51.814601,-30.850704]},{"id":"51d48bd9-fcb5-42c2-9183-3e32b5b5d737","title":"RS - CACHOEIRINHA","tipo":"Cebraspe","url":"\/dashboard\/details-assets\/51d48bd9-fcb5-42c2-9183-3e32b5b5d737","coordinates":[-51.093677,-29.950629]},{"id":"9655014b-afd2-4705-9175-7d79e0419d71","title":"RS - CACAPAVA DO SUL","tipo":"Cebraspe","url":"\/dashboard\/details-assets\/9655014b-afd2-4705-9175-7d79e0419d71","coordinates":[-53.487569,-30.514743]},{"id":"ffb6d0e2-ff77-4347-b8c7-24feb9685341","title":"RS - CACHOEIRA DO SUL","tipo":"Cebraspe","url":"\/dashboard\/details-assets\/ffb6d0e2-ff77-4347-b8c7-24feb9685341","coordinates":[-52.893413,-30.04582]},{"id":"104f1303-a97a-4ee9-b9d5-e22dd762a750","title":"RS - BUTIA","tipo":"Cebraspe","url":"\/dashboard\/details-assets\/104f1303-a97a-4ee9-b9d5-e22dd762a750","coordinates":[-51.961483,-30.116144]},{"id":"e9c1ab52-aafd-4c58-8677-c66cef87728a","title":"RS - BENTO GONCALVES","tipo":"Cebraspe","url":"\/dashboard\/details-assets\/e9c1ab52-aafd-4c58-8677-c66cef87728a","coordinates":[-51.51556,-29.167402]},{"id":"35c27089-6f1b-4176-a793-b19aa87698be","title":"RS - BAGE","tipo":"Cebraspe","url":"\/dashboard\/details-assets\/35c27089-6f1b-4176-a793-b19aa87698be","coordinates":[-54.107083,-31.330502]},{"id":"8ee48512-38f6-46d2-aa31-8134544ae1ab","title":"RS - ARROIO DO MEIO","tipo":"Cebraspe","url":"\/dashboard\/details-assets\/8ee48512-38f6-46d2-aa31-8134544ae1ab","coordinates":[-51.947449,-29.398891]},{"id":"4f7d2c84-e0de-453f-b1ac-1590b1547833","title":"RS - ARROIO GRANDE","tipo":"Cebraspe","url":"\/dashboard\/details-assets\/4f7d2c84-e0de-453f-b1ac-1590b1547833","coordinates":[-53.086694,-32.233155]},{"id":"aa3aa7a1-3627-4380-8c94-ebcf50142525","title":"RS - ALVORADA","tipo":"Cebraspe","url":"\/dashboard\/details-assets\/aa3aa7a1-3627-4380-8c94-ebcf50142525","coordinates":[-51.077729,-29.997493]},{"id":"b42ebb84-d758-4fff-9129-e2ef34484147","title":"RR - UIRAMUTA","tipo":"Cebraspe","url":"\/dashboard\/details-assets\/b42ebb84-d758-4fff-9129-e2ef34484147","coordinates":[-60.167778,4.595833]},{"id":"6248b528-1620-42ff-bae5-97ec1c69f190","title":"RS - ALEGRETE","tipo":"Cebraspe","url":"\/dashboard\/details-assets\/6248b528-1620-42ff-bae5-97ec1c69f190","coordinates":[-55.779303,-29.766027]},{"id":"7f052a1a-4b81-49dd-99b0-79d0f4e1c621","title":"RR - SAO JOAO DA BALIZA","tipo":"Cebraspe","url":"\/dashboard\/details-assets\/7f052a1a-4b81-49dd-99b0-79d0f4e1c621","coordinates":[-59.906044,0.947157]},{"id":"6e6fe813-7292-4648-b8ad-19c92dff68f0","title":"RR - RORAINOPOLIS","tipo":"Cebraspe","url":"\/dashboard\/details-assets\/6e6fe813-7292-4648-b8ad-19c92dff68f0","coordinates":[-60.42506,0.937195]},{"id":"81273903-f0da-45d6-8bce-ea2da9dafd27","title":"RR - MUCAJAI","tipo":"Cebraspe","url":"\/dashboard\/details-assets\/81273903-f0da-45d6-8bce-ea2da9dafd27","coordinates":[-60.911519,2.479772]},{"id":"c1b65ec9-b219-4d94-935a-4a95dc825cc6","title":"RR - PACARAIMA","tipo":"Cebraspe","url":"\/dashboard\/details-assets\/c1b65ec9-b219-4d94-935a-4a95dc825cc6","coordinates":[-61.15,4.48]},{"id":"d67fd54d-7d44-40a5-8be2-614e81fabf00","title":"RR - CARACARAI","tipo":"Cebraspe","url":"\/dashboard\/details-assets\/d67fd54d-7d44-40a5-8be2-614e81fabf00","coordinates":[-61.149177,1.803871]},{"id":"b7f05df5-01f8-438f-9313-669ddd122918","title":"RR - BONFIM","tipo":"Cebraspe","url":"\/dashboard\/details-assets\/b7f05df5-01f8-438f-9313-669ddd122918","coordinates":[-59.835435,3.363998]},{"id":"7e62077a-53bd-406d-8bbe-14f366c5208b","title":"RR - BOA VISTA","tipo":"Cebraspe","url":"\/dashboard\/details-assets\/7e62077a-53bd-406d-8bbe-14f366c5208b","coordinates":[-60.670533,2.816682]},{"id":"7d510ec3-e6b9-463b-9daa-04638d09dd62","title":"RR - ALTO ALEGRE","tipo":"Cebraspe","url":"\/dashboard\/details-assets\/7d510ec3-e6b9-463b-9daa-04638d09dd62","coordinates":[-61.491959,2.908753]},{"id":"77982209-a237-4c8d-bb59-5c9fad4f8abd","title":"RR - AMAJARI","tipo":"Cebraspe","url":"\/dashboard\/details-assets\/77982209-a237-4c8d-bb59-5c9fad4f8abd","coordinates":[-61.371389,3.653056]},{"id":"393c23aa-96b2-4e98-8db3-6c99e123febb","title":"RO - MONTE NEGRO","tipo":"Cebraspe","url":"\/dashboard\/details-assets\/393c23aa-96b2-4e98-8db3-6c99e123febb","coordinates":[-63.296329,-10.262018]},{"id":"c701b3cb-42ac-44ba-880b-9390c8cd49d8","title":"RO - SAO FRANCISCO DO GUAPORE","tipo":"Cebraspe","url":"\/dashboard\/details-assets\/c701b3cb-42ac-44ba-880b-9390c8cd49d8","coordinates":[-63.570865,-12.063798]},{"id":"4b0a306d-6d11-43d3-9151-54e0ffd01f3a","title":"RO - MIRANTE DA SERRA","tipo":"Cebraspe","url":"\/dashboard\/details-assets\/4b0a306d-6d11-43d3-9151-54e0ffd01f3a","coordinates":[-62.669427,-11.045609]},{"id":"400eb41e-079d-4fa5-8805-2b01434e553b","title":"RO - BURITIS","tipo":"Cebraspe","url":"\/dashboard\/details-assets\/400eb41e-079d-4fa5-8805-2b01434e553b","coordinates":[-63.829679,-10.209805]},{"id":"15c0275b-16a9-4a88-b9f7-58db4485de9e","title":"RO - ALTO PARAISO","tipo":"Cebraspe","url":"\/dashboard\/details-assets\/15c0275b-16a9-4a88-b9f7-58db4485de9e","coordinates":[-63.326704,-9.689614]},{"id":"83f509b1-24ae-4ccc-91b0-2a2424ba4103","title":"RO - ALVORADA DOESTE","tipo":"Cebraspe","url":"\/dashboard\/details-assets\/83f509b1-24ae-4ccc-91b0-2a2424ba4103","coordinates":[-62.28777,-11.348088]},{"id":"5922e986-2784-4c52-b419-59499bad2879","title":"RO - VILHENA","tipo":"Cebraspe","url":"\/dashboard\/details-assets\/5922e986-2784-4c52-b419-59499bad2879","coordinates":[-60.138584,-12.741373]},{"id":"99ebb9b5-fb8e-4bce-83d0-022cbd27f0aa","title":"RO - SAO MIGUEL DO GUAPORE","tipo":"Cebraspe","url":"\/dashboard\/details-assets\/99ebb9b5-fb8e-4bce-83d0-022cbd27f0aa","coordinates":[-62.714485,-11.693907]},{"id":"238824bf-8e7a-4f4f-821c-8e99c0e417e6","title":"RO - ROLIM DE MOURA","tipo":"Cebraspe","url":"\/dashboard\/details-assets\/238824bf-8e7a-4f4f-821c-8e99c0e417e6","coordinates":[-61.785781,-11.722259]},{"id":"1a4b815c-4f0e-4be5-9897-41848ad5b400","title":"RO - PRESIDENTE MEDICI","tipo":"Cebraspe","url":"\/dashboard\/details-assets\/1a4b815c-4f0e-4be5-9897-41848ad5b400","coordinates":[-61.909439,-11.173205]},{"id":"4e238f10-0469-4292-987c-d08a6b27f2e7","title":"RO - PIMENTA BUENO","tipo":"Cebraspe","url":"\/dashboard\/details-assets\/4e238f10-0469-4292-987c-d08a6b27f2e7","coordinates":[-61.183666,-11.677537]},{"id":"4b14dae4-66aa-4c4d-aa7a-aaf628a23ac8","title":"RO - PORTO VELHO","tipo":"Cebraspe","url":"\/dashboard\/details-assets\/4b14dae4-66aa-4c4d-aa7a-aaf628a23ac8","coordinates":[-63.831446,-8.768892]},{"id":"3b536fe0-5cd6-4789-8871-7eaae4296831","title":"RO - OURO PRETO DO OESTE","tipo":"Cebraspe","url":"\/dashboard\/details-assets\/3b536fe0-5cd6-4789-8871-7eaae4296831","coordinates":[-62.261055,-10.723574]},{"id":"6751d325-5573-4ab7-bb4e-2cd2b5d79ea9","title":"RO - NOVA BRASILANDIA DOESTE","tipo":"Cebraspe","url":"\/dashboard\/details-assets\/6751d325-5573-4ab7-bb4e-2cd2b5d79ea9","coordinates":[-62.30823,-11.721325]},{"id":"f2dc5fb5-ecb7-4100-babe-54c0d79c44b5","title":"RO - MACHADINHO DOESTE","tipo":"Cebraspe","url":"\/dashboard\/details-assets\/f2dc5fb5-ecb7-4100-babe-54c0d79c44b5","coordinates":[-61.999593,-9.425562]},{"id":"bdf1cbba-be3b-4288-8593-eb2585f58292","title":"RO - JIPARANA","tipo":"Cebraspe","url":"\/dashboard\/details-assets\/bdf1cbba-be3b-4288-8593-eb2585f58292","coordinates":[-61.945095,-10.882051]},{"id":"edfe703d-f31c-4635-a33a-b9dfc2e893bc","title":"RO - JARU","tipo":"Cebraspe","url":"\/dashboard\/details-assets\/edfe703d-f31c-4635-a33a-b9dfc2e893bc","coordinates":[-62.476231,-10.435949]},{"id":"e67250c1-e38a-4b0e-9a76-d261fd5e4a98","title":"RO - ESPIGAO DOESTE","tipo":"Cebraspe","url":"\/dashboard\/details-assets\/e67250c1-e38a-4b0e-9a76-d261fd5e4a98","coordinates":[-61.020173,-11.528555]},{"id":"2b4b7cca-6498-4b3b-9fb6-7db01d708f87","title":"RO - GUAJARAMIRIM","tipo":"Cebraspe","url":"\/dashboard\/details-assets\/2b4b7cca-6498-4b3b-9fb6-7db01d708f87","coordinates":[-65.323952,-10.773884]},{"id":"32b47678-98c7-47d7-857b-1336ca996212","title":"RO - COSTA MARQUES","tipo":"Cebraspe","url":"\/dashboard\/details-assets\/32b47678-98c7-47d7-857b-1336ca996212","coordinates":[-64.227222,-12.445]},{"id":"ac55456b-e3a4-4ccf-a152-9017b0a42e2b","title":"RO - COLORADO DO OESTE","tipo":"Cebraspe","url":"\/dashboard\/details-assets\/ac55456b-e3a4-4ccf-a152-9017b0a42e2b","coordinates":[-60.555067,-13.130564]},{"id":"d23e5d3c-150d-494c-9997-987b5f4ce72e","title":"RO - CEREJEIRAS","tipo":"Cebraspe","url":"\/dashboard\/details-assets\/d23e5d3c-150d-494c-9997-987b5f4ce72e","coordinates":[-60.818426,-13.195033]},{"id":"54528d28-c520-478e-9975-859505511f12","title":"RO - CACOAL","tipo":"Cebraspe","url":"\/dashboard\/details-assets\/54528d28-c520-478e-9975-859505511f12","coordinates":[-61.442944,-11.433865]},{"id":"7c0a715e-5b5d-4343-b16d-abaf6fbff0f1","title":"RO - ALTA FLORESTA DOESTE","tipo":"Cebraspe","url":"\/dashboard\/details-assets\/7c0a715e-5b5d-4343-b16d-abaf6fbff0f1","coordinates":[-61.999824,-11.93554]},{"id":"b28cfc06-a6b2-43ec-b306-446e73310caa","title":"RO - ARIQUEMES","tipo":"Cebraspe","url":"\/dashboard\/details-assets\/b28cfc06-a6b2-43ec-b306-446e73310caa","coordinates":[-63.033269,-9.908463]},{"id":"8ef4ae25-88a1-41e6-8f28-4c6beb9808be","title":"RN - VERA CRUZ","tipo":"Cebraspe","url":"\/dashboard\/details-assets\/8ef4ae25-88a1-41e6-8f28-4c6beb9808be","coordinates":[-35.427185,-6.037456]},{"id":"d510c25f-7b2a-482a-a1cc-c0fafedf68a6","title":"RN - UMARIZAL","tipo":"Cebraspe","url":"\/dashboard\/details-assets\/d510c25f-7b2a-482a-a1cc-c0fafedf68a6","coordinates":[-37.813258,-5.989902]},{"id":"fc9be301-0642-47f1-9a3c-4e5431ec706f","title":"RN - TOUROS","tipo":"Cebraspe","url":"\/dashboard\/details-assets\/fc9be301-0642-47f1-9a3c-4e5431ec706f","coordinates":[-35.455293,-5.202607]},{"id":"096581c7-74fa-4e60-8e63-16d11ce7db8d","title":"RN - SAO PAULO DO POTENGI","tipo":"Cebraspe","url":"\/dashboard\/details-assets\/096581c7-74fa-4e60-8e63-16d11ce7db8d","coordinates":[-35.762778,-5.895]},{"id":"de999c68-28a1-46bd-a00e-cce578d02c22","title":"RN - SAO MIGUEL","tipo":"Cebraspe","url":"\/dashboard\/details-assets\/de999c68-28a1-46bd-a00e-cce578d02c22","coordinates":[-38.496344,-6.212343]},{"id":"3157f79d-a791-4b3a-8cce-e8c001150da9","title":"RN - SAO JOSE DE MIPIBU","tipo":"Cebraspe","url":"\/dashboard\/details-assets\/3157f79d-a791-4b3a-8cce-e8c001150da9","coordinates":[-35.240275,-6.070466]},{"id":"771553dc-b93c-417b-9eda-4e9ac6e4cda7","title":"RN - SAO GONCALO DO AMARANTE","tipo":"Cebraspe","url":"\/dashboard\/details-assets\/771553dc-b93c-417b-9eda-4e9ac6e4cda7","coordinates":[-35.331156,-5.789556]},{"id":"2f5776f0-755c-46e2-8e3d-00f63a084a10","title":"RN - SANTO ANTONIO","tipo":"Cebraspe","url":"\/dashboard\/details-assets\/2f5776f0-755c-46e2-8e3d-00f63a084a10","coordinates":[-35.475137,-6.305174]},{"id":"e6fcd1c1-224c-4179-86fa-65211baa334d","title":"RN - TIBAU","tipo":"Cebraspe","url":"\/dashboard\/details-assets\/e6fcd1c1-224c-4179-86fa-65211baa334d","coordinates":[-37.251303,-4.841437]},{"id":"3ce6d91b-f906-4ad2-9b80-b38a45c97e7a","title":"RN - SANTA CRUZ","tipo":"Cebraspe","url":"\/dashboard\/details-assets\/3ce6d91b-f906-4ad2-9b80-b38a45c97e7a","coordinates":[-40.337688,-8.237961]},{"id":"1d963f7c-67b5-4c51-95ba-5e077ff1630f","title":"RN - PORTALEGRE","tipo":"Cebraspe","url":"\/dashboard\/details-assets\/1d963f7c-67b5-4c51-95ba-5e077ff1630f","coordinates":[-37.983146,-6.021181]},{"id":"dc259b90-817b-403e-ab3e-b3189780a04b","title":"RN - PAU DOS FERROS","tipo":"Cebraspe","url":"\/dashboard\/details-assets\/dc259b90-817b-403e-ab3e-b3189780a04b","coordinates":[-38.203262,-6.114732]},{"id":"1ca3f4a4-e436-44b7-b3eb-2188299e8da1","title":"RN - PATU","tipo":"Cebraspe","url":"\/dashboard\/details-assets\/1ca3f4a4-e436-44b7-b3eb-2188299e8da1","coordinates":[-37.640102,-6.101532]},{"id":"e38f0499-a1cf-45dd-a186-91c3942fba2a","title":"RN - PARELHAS","tipo":"Cebraspe","url":"\/dashboard\/details-assets\/e38f0499-a1cf-45dd-a186-91c3942fba2a","coordinates":[-36.657805,-6.688755]},{"id":"46d71220-f155-44f8-a0a2-78bcc2951c97","title":"RN - NOVA CRUZ","tipo":"Cebraspe","url":"\/dashboard\/details-assets\/46d71220-f155-44f8-a0a2-78bcc2951c97","coordinates":[-35.4323,-6.480065]},{"id":"43eecdeb-f13d-425a-9046-62bb0491fb79","title":"RN - NISIA FLORESTA","tipo":"Cebraspe","url":"\/dashboard\/details-assets\/43eecdeb-f13d-425a-9046-62bb0491fb79","coordinates":[-35.21131,-6.090714]},{"id":"1c7fb71a-45c5-439a-a99a-3e5c4be8fe3f","title":"RN - NATAL","tipo":"Cebraspe","url":"\/dashboard\/details-assets\/1c7fb71a-45c5-439a-a99a-3e5c4be8fe3f","coordinates":[-35.215863,-5.79872]},{"id":"deaa9c60-b4e3-4301-807a-c5980ce62eb8","title":"RN - MOSSORO","tipo":"Cebraspe","url":"\/dashboard\/details-assets\/deaa9c60-b4e3-4301-807a-c5980ce62eb8","coordinates":[-37.356874,-5.193801]},{"id":"e49f9d24-bdcf-4c24-883f-146976fc5421","title":"RN - MACAIBA","tipo":"Cebraspe","url":"\/dashboard\/details-assets\/e49f9d24-bdcf-4c24-883f-146976fc5421","coordinates":[-35.355237,-5.857237]},{"id":"76300e29-c40e-4222-a603-b1bf2b2adbb8","title":"RN - MACAU","tipo":"Cebraspe","url":"\/dashboard\/details-assets\/76300e29-c40e-4222-a603-b1bf2b2adbb8","coordinates":[-36.634973,-5.113368]},{"id":"1d8d0486-d21f-4fd0-96bd-2833fa84ebaa","title":"RN - JUCURUTU","tipo":"Cebraspe","url":"\/dashboard\/details-assets\/1d8d0486-d21f-4fd0-96bd-2833fa84ebaa","coordinates":[-37.020226,-6.033419]},{"id":"60e779b2-b998-47b8-aee8-38e7cf7ef552","title":"RN - LUIS GOMES","tipo":"Cebraspe","url":"\/dashboard\/details-assets\/60e779b2-b998-47b8-aee8-38e7cf7ef552","coordinates":[-38.38642,-6.414028]},