{"type":"FeatureCollection","features":[{"type":"Feature","properties":{"municipio":"db1fb5ed-837d-4e1c-926b-3ebe26c4cf34","title":"TO - WANDERLANDIA","name":"TO - WANDERLANDIA","tipo":"Munic\u00edpio","url":"\/dashboard\/details-assets\/db1fb5ed-837d-4e1c-926b-3ebe26c4cf34"},"geometry":{"type":"Point","coordinates":[-47.987982,-6.852034]}},{"type":"Feature","properties":{"municipio":"d73517d9-d608-4cc0-a38e-bd8e7cdfc4bd","title":"TO - XAMBIOA","name":"TO - XAMBIOA","tipo":"Munic\u00edpio","url":"\/dashboard\/details-assets\/d73517d9-d608-4cc0-a38e-bd8e7cdfc4bd"},"geometry":{"type":"Point","coordinates":[-48.438758,-6.534881]}},{"type":"Feature","properties":{"municipio":"5f1635d3-dc8f-40d5-93ed-6b16bd535a89","title":"TO - TOCANTINOPOLIS","name":"TO - TOCANTINOPOLIS","tipo":"Munic\u00edpio","url":"\/dashboard\/details-assets\/5f1635d3-dc8f-40d5-93ed-6b16bd535a89"},"geometry":{"type":"Point","coordinates":[-47.429498,-6.324747]}},{"type":"Feature","properties":{"municipio":"c903755d-42ca-4939-9c2e-9ad08a136803","title":"TO - PALMAS","name":"TO - PALMAS","tipo":"Munic\u00edpio","url":"\/dashboard\/details-assets\/c903755d-42ca-4939-9c2e-9ad08a136803"},"geometry":{"type":"Point","coordinates":[-48.317036,-10.230299]}},{"type":"Feature","properties":{"municipio":"4514c06d-6084-43b6-bcf0-b9988f76b2ed","title":"TO - TAGUATINGA","name":"TO - TAGUATINGA","tipo":"Munic\u00edpio","url":"\/dashboard\/details-assets\/4514c06d-6084-43b6-bcf0-b9988f76b2ed"},"geometry":{"type":"Point","coordinates":[-46.442844,-12.406006]}},{"type":"Feature","properties":{"municipio":"1e00b776-89a3-4260-ad71-caf61ee2ce95","title":"TO - SITIO NOVO DO TOCANTINS","name":"TO - SITIO NOVO DO TOCANTINS","tipo":"Munic\u00edpio","url":"\/dashboard\/details-assets\/1e00b776-89a3-4260-ad71-caf61ee2ce95"},"geometry":{"type":"Point","coordinates":[-47.652845,-5.614472]}},{"type":"Feature","properties":{"municipio":"c639c024-ff1a-4667-898d-d3e7bc646d75","title":"TO - SANTA FE DO ARAGUAIA","name":"TO - SANTA FE DO ARAGUAIA","tipo":"Munic\u00edpio","url":"\/dashboard\/details-assets\/c639c024-ff1a-4667-898d-d3e7bc646d75"},"geometry":{"type":"Point","coordinates":[-48.766963,-7.171245]}},{"type":"Feature","properties":{"municipio":"81b44f1f-c52b-4d57-aece-09f6d1fb6497","title":"TO - PORTO NACIONAL","name":"TO - PORTO NACIONAL","tipo":"Munic\u00edpio","url":"\/dashboard\/details-assets\/81b44f1f-c52b-4d57-aece-09f6d1fb6497"},"geometry":{"type":"Point","coordinates":[-48.408486,-10.703164]}},{"type":"Feature","properties":{"municipio":"5025fd12-f83c-497a-933b-6b04581386e2","title":"TO - PEIXE","name":"TO - PEIXE","tipo":"Munic\u00edpio","url":"\/dashboard\/details-assets\/5025fd12-f83c-497a-933b-6b04581386e2"},"geometry":{"type":"Point","coordinates":[-48.548696,-12.025853]}},{"type":"Feature","properties":{"municipio":"c39ba642-a396-4b32-8778-6c9f25d5eb2d","title":"TO - PEDRO AFONSO","name":"TO - PEDRO AFONSO","tipo":"Munic\u00edpio","url":"\/dashboard\/details-assets\/c39ba642-a396-4b32-8778-6c9f25d5eb2d"},"geometry":{"type":"Point","coordinates":[-48.178975,-8.962943]}},{"type":"Feature","properties":{"municipio":"5fba3853-fc12-4a9b-ac53-5a285a957c65","title":"TO - PALMEIROPOLIS","name":"TO - PALMEIROPOLIS","tipo":"Munic\u00edpio","url":"\/dashboard\/details-assets\/5fba3853-fc12-4a9b-ac53-5a285a957c65"},"geometry":{"type":"Point","coordinates":[-48.407342,-13.042427]}},{"type":"Feature","properties":{"municipio":"e07c3d92-0dad-4d19-b1d9-e499ef489356","title":"TO - PARAISO DO TOCANTINS","name":"TO - PARAISO DO TOCANTINS","tipo":"Munic\u00edpio","url":"\/dashboard\/details-assets\/e07c3d92-0dad-4d19-b1d9-e499ef489356"},"geometry":{"type":"Point","coordinates":[-48.874963,-10.102218]}},{"type":"Feature","properties":{"municipio":"a4fd09d0-7958-44f4-812f-40c0a6d3d23d","title":"TO - NOVO ACORDO","name":"TO - NOVO ACORDO","tipo":"Munic\u00edpio","url":"\/dashboard\/details-assets\/a4fd09d0-7958-44f4-812f-40c0a6d3d23d"},"geometry":{"type":"Point","coordinates":[-47.683543,-9.992394]}},{"type":"Feature","properties":{"municipio":"6efbfe7d-b0fd-4cc9-85f2-ce70b0cfcb62","title":"TO - NATIVIDADE","name":"TO - NATIVIDADE","tipo":"Munic\u00edpio","url":"\/dashboard\/details-assets\/6efbfe7d-b0fd-4cc9-85f2-ce70b0cfcb62"},"geometry":{"type":"Point","coordinates":[-47.684901,-11.876469]}},{"type":"Feature","properties":{"municipio":"5e423012-c866-4f3f-9848-8567513a17ca","title":"TO - ITACAJA","name":"TO - ITACAJA","tipo":"Munic\u00edpio","url":"\/dashboard\/details-assets\/5e423012-c866-4f3f-9848-8567513a17ca"},"geometry":{"type":"Point","coordinates":[-47.783532,-8.373788]}},{"type":"Feature","properties":{"municipio":"9dcd1b1d-3ac0-4655-b538-93405ff213f9","title":"TO - MIRACEMA DO TOCANTINS","name":"TO - MIRACEMA DO TOCANTINS","tipo":"Munic\u00edpio","url":"\/dashboard\/details-assets\/9dcd1b1d-3ac0-4655-b538-93405ff213f9"},"geometry":{"type":"Point","coordinates":[-48.419984,-9.570547]}},{"type":"Feature","properties":{"municipio":"7c149cbc-5035-4a53-bbe8-0615c10cca98","title":"TO - GURUPI","name":"TO - GURUPI","tipo":"Munic\u00edpio","url":"\/dashboard\/details-assets\/7c149cbc-5035-4a53-bbe8-0615c10cca98"},"geometry":{"type":"Point","coordinates":[-49.120839,-11.735005]}},{"type":"Feature","properties":{"municipio":"6adf3097-c9f8-4403-881b-a21bc5275a85","title":"TO - GUARAI","name":"TO - GUARAI","tipo":"Munic\u00edpio","url":"\/dashboard\/details-assets\/6adf3097-c9f8-4403-881b-a21bc5275a85"},"geometry":{"type":"Point","coordinates":[-48.525934,-8.841813]}},{"type":"Feature","properties":{"municipio":"8d432775-d102-4ed1-829e-a61d3032414a","title":"TO - FORMOSO DO ARAGUAIA","name":"TO - FORMOSO DO ARAGUAIA","tipo":"Munic\u00edpio","url":"\/dashboard\/details-assets\/8d432775-d102-4ed1-829e-a61d3032414a"},"geometry":{"type":"Point","coordinates":[-49.536601,-11.80576]}},{"type":"Feature","properties":{"municipio":"07114743-f088-4fb7-a13c-da8ab34f63fe","title":"TO - ESPERANTINA","name":"TO - ESPERANTINA","tipo":"Munic\u00edpio","url":"\/dashboard\/details-assets\/07114743-f088-4fb7-a13c-da8ab34f63fe"},"geometry":{"type":"Point","coordinates":[-48.540014,-5.36695]}},{"type":"Feature","properties":{"municipio":"4197bb13-d961-4586-a14c-51ab99c1cf78","title":"TO - CRISTALANDIA","name":"TO - CRISTALANDIA","tipo":"Munic\u00edpio","url":"\/dashboard\/details-assets\/4197bb13-d961-4586-a14c-51ab99c1cf78"},"geometry":{"type":"Point","coordinates":[-49.221381,-10.579947]}},{"type":"Feature","properties":{"municipio":"341930f8-43dc-4fce-8a35-97dd09478480","title":"TO - DIANOPOLIS","name":"TO - DIANOPOLIS","tipo":"Munic\u00edpio","url":"\/dashboard\/details-assets\/341930f8-43dc-4fce-8a35-97dd09478480"},"geometry":{"type":"Point","coordinates":[-46.825934,-11.748062]}},{"type":"Feature","properties":{"municipio":"21db3266-09de-420e-b89c-8aa8875db653","title":"TO - COLINAS DO TOCANTINS","name":"TO - COLINAS DO TOCANTINS","tipo":"Munic\u00edpio","url":"\/dashboard\/details-assets\/21db3266-09de-420e-b89c-8aa8875db653"},"geometry":{"type":"Point","coordinates":[-48.448591,-7.990545]}},{"type":"Feature","properties":{"municipio":"fbd0b940-e2f5-4d3b-ac1b-ce0b37a82dc6","title":"TO - BREJINHO DE NAZARE","name":"TO - BREJINHO DE NAZARE","tipo":"Munic\u00edpio","url":"\/dashboard\/details-assets\/fbd0b940-e2f5-4d3b-ac1b-ce0b37a82dc6"},"geometry":{"type":"Point","coordinates":[-48.638888,-11.035535]}},{"type":"Feature","properties":{"municipio":"50307ed7-ec8d-4b4c-b597-eb85c6f95ce7","title":"TO - AUGUSTINOPOLIS","name":"TO - AUGUSTINOPOLIS","tipo":"Munic\u00edpio","url":"\/dashboard\/details-assets\/50307ed7-ec8d-4b4c-b597-eb85c6f95ce7"},"geometry":{"type":"Point","coordinates":[-47.887112,-5.469433]}},{"type":"Feature","properties":{"municipio":"fed301db-1c5c-4117-aabd-ab53592ec483","title":"TO - ARRAIAS","name":"TO - ARRAIAS","tipo":"Munic\u00edpio","url":"\/dashboard\/details-assets\/fed301db-1c5c-4117-aabd-ab53592ec483"},"geometry":{"type":"Point","coordinates":[-46.98051,-12.67706]}},{"type":"Feature","properties":{"municipio":"eeba14e1-d07c-4129-8714-f40487053c80","title":"TO - ARAPOEMA","name":"TO - ARAPOEMA","tipo":"Munic\u00edpio","url":"\/dashboard\/details-assets\/eeba14e1-d07c-4129-8714-f40487053c80"},"geometry":{"type":"Point","coordinates":[-49.064131,-7.655037]}},{"type":"Feature","properties":{"municipio":"fe12ecb5-0dcd-4fa4-a22c-089991c9da28","title":"TO - ARAGUATINS","name":"TO - ARAGUATINS","tipo":"Munic\u00edpio","url":"\/dashboard\/details-assets\/fe12ecb5-0dcd-4fa4-a22c-089991c9da28"},"geometry":{"type":"Point","coordinates":[-48.119389,-5.648411]}},{"type":"Feature","properties":{"municipio":"cb84567f-0034-4e65-82b2-5278cf0f5991","title":"TO - ARAGUANA","name":"TO - ARAGUANA","tipo":"Munic\u00edpio","url":"\/dashboard\/details-assets\/cb84567f-0034-4e65-82b2-5278cf0f5991"},"geometry":{"type":"Point","coordinates":[-48.518723,-6.81017]}},{"type":"Feature","properties":{"municipio":"000d91bf-7454-41c3-a885-209ce17d7d7b","title":"TO - ANANAS","name":"TO - ANANAS","tipo":"Munic\u00edpio","url":"\/dashboard\/details-assets\/000d91bf-7454-41c3-a885-209ce17d7d7b"},"geometry":{"type":"Point","coordinates":[-48.073889,-6.364762]}},{"type":"Feature","properties":{"municipio":"395bab92-35e7-4ef9-b26f-9f2967cde65c","title":"TO - ARAGUAINA","name":"TO - ARAGUAINA","tipo":"Munic\u00edpio","url":"\/dashboard\/details-assets\/395bab92-35e7-4ef9-b26f-9f2967cde65c"},"geometry":{"type":"Point","coordinates":[-48.287407,-7.210941]}},{"type":"Feature","properties":{"municipio":"6139105d-7971-4e07-a0c8-1b98fbf53e69","title":"SP - VOTUPORANGA","name":"SP - VOTUPORANGA","tipo":"Munic\u00edpio","url":"\/dashboard\/details-assets\/6139105d-7971-4e07-a0c8-1b98fbf53e69"},"geometry":{"type":"Point","coordinates":[-49.970325,-20.417194]}},{"type":"Feature","properties":{"municipio":"6e91edcc-b956-4712-8612-51e7db886011","title":"SP - VOTORANTIM","name":"SP - VOTORANTIM","tipo":"Munic\u00edpio","url":"\/dashboard\/details-assets\/6e91edcc-b956-4712-8612-51e7db886011"},"geometry":{"type":"Point","coordinates":[-47.444598,-23.540286]}},{"type":"Feature","properties":{"municipio":"e88ede87-19dc-4848-8637-f7bd9e861d7e","title":"SP - VINHEDO","name":"SP - VINHEDO","tipo":"Munic\u00edpio","url":"\/dashboard\/details-assets\/e88ede87-19dc-4848-8637-f7bd9e861d7e"},"geometry":{"type":"Point","coordinates":[-46.976476,-23.030538]}},{"type":"Feature","properties":{"municipio":"7934a525-716b-4d62-b2f2-0712fcaabcd2","title":"SP - VARZEA PAULISTA","name":"SP - VARZEA PAULISTA","tipo":"Munic\u00edpio","url":"\/dashboard\/details-assets\/7934a525-716b-4d62-b2f2-0712fcaabcd2"},"geometry":{"type":"Point","coordinates":[-46.82989,-23.214466]}},{"type":"Feature","properties":{"municipio":"a1786955-8844-4c7c-b65b-5e7753c4d7f6","title":"SP - VARGEM GRANDE PAULISTA","name":"SP - VARGEM GRANDE PAULISTA","tipo":"Munic\u00edpio","url":"\/dashboard\/details-assets\/a1786955-8844-4c7c-b65b-5e7753c4d7f6"},"geometry":{"type":"Point","coordinates":[-47.019648,-23.615302]}},{"type":"Feature","properties":{"municipio":"629f16bc-f12c-40fc-a072-9b574516b881","title":"SP - VARGEM GRANDE DO SUL","name":"SP - VARGEM GRANDE DO SUL","tipo":"Munic\u00edpio","url":"\/dashboard\/details-assets\/629f16bc-f12c-40fc-a072-9b574516b881"},"geometry":{"type":"Point","coordinates":[-46.895609,-21.835866]}},{"type":"Feature","properties":{"municipio":"7672f6f6-1b2a-457e-b331-d8b69e85550f","title":"SP - VALINHOS","name":"SP - VALINHOS","tipo":"Munic\u00edpio","url":"\/dashboard\/details-assets\/7672f6f6-1b2a-457e-b331-d8b69e85550f"},"geometry":{"type":"Point","coordinates":[-46.99663,-22.971244]}},{"type":"Feature","properties":{"municipio":"1e9bf0f4-8f01-4087-a0b8-fe876dc55c17","title":"SP - UBATUBA","name":"SP - UBATUBA","tipo":"Munic\u00edpio","url":"\/dashboard\/details-assets\/1e9bf0f4-8f01-4087-a0b8-fe876dc55c17"},"geometry":{"type":"Point","coordinates":[-45.072091,-23.435965]}},{"type":"Feature","properties":{"municipio":"4af38f46-56fc-4e82-89d1-8b8849d13fc2","title":"SP - TUPA","name":"SP - TUPA","tipo":"Munic\u00edpio","url":"\/dashboard\/details-assets\/4af38f46-56fc-4e82-89d1-8b8849d13fc2"},"geometry":{"type":"Point","coordinates":[-50.514006,-21.934822]}},{"type":"Feature","properties":{"municipio":"8bc6fe8e-2acd-456f-825c-71ff2e6d31e2","title":"SP - TIETE","name":"SP - TIETE","tipo":"Munic\u00edpio","url":"\/dashboard\/details-assets\/8bc6fe8e-2acd-456f-825c-71ff2e6d31e2"},"geometry":{"type":"Point","coordinates":[-47.711473,-23.097889]}},{"type":"Feature","properties":{"municipio":"b0071eda-e285-415c-b5c2-eaa038e82eb8","title":"SP - TEODORO SAMPAIO","name":"SP - TEODORO SAMPAIO","tipo":"Munic\u00edpio","url":"\/dashboard\/details-assets\/b0071eda-e285-415c-b5c2-eaa038e82eb8"},"geometry":{"type":"Point","coordinates":[-52.173362,-22.53144]}},{"type":"Feature","properties":{"municipio":"920bbb66-f1bb-4639-ae12-82081de16cc0","title":"SP - TAUBATE","name":"SP - TAUBATE","tipo":"Munic\u00edpio","url":"\/dashboard\/details-assets\/920bbb66-f1bb-4639-ae12-82081de16cc0"},"geometry":{"type":"Point","coordinates":[-45.556609,-23.026555]}},{"type":"Feature","properties":{"municipio":"d305807b-7ff9-4223-a1e1-dfd0a3ba1e50","title":"SP - TATUI","name":"SP - TATUI","tipo":"Munic\u00edpio","url":"\/dashboard\/details-assets\/d305807b-7ff9-4223-a1e1-dfd0a3ba1e50"},"geometry":{"type":"Point","coordinates":[-47.849464,-23.348576]}},{"type":"Feature","properties":{"municipio":"920412cd-5cdd-41d7-aff9-a2a337b0d495","title":"SP - TAQUARITINGA","name":"SP - TAQUARITINGA","tipo":"Munic\u00edpio","url":"\/dashboard\/details-assets\/920412cd-5cdd-41d7-aff9-a2a337b0d495"},"geometry":{"type":"Point","coordinates":[-48.506742,-21.410008]}},{"type":"Feature","properties":{"municipio":"8dab732c-1a36-4ddd-9d38-490af1a17188","title":"SP - TAPIRATIBA","name":"SP - TAPIRATIBA","tipo":"Munic\u00edpio","url":"\/dashboard\/details-assets\/8dab732c-1a36-4ddd-9d38-490af1a17188"},"geometry":{"type":"Point","coordinates":[-46.745515,-21.471885]}},{"type":"Feature","properties":{"municipio":"f4bbbd73-a5e0-4fb5-9b33-6ad89dd671ae","title":"SP - SUZANO","name":"SP - SUZANO","tipo":"Munic\u00edpio","url":"\/dashboard\/details-assets\/f4bbbd73-a5e0-4fb5-9b33-6ad89dd671ae"},"geometry":{"type":"Point","coordinates":[-46.30781,-23.536827]}},{"type":"Feature","properties":{"municipio":"008f58c2-d763-4c3b-b501-5d0fe3d88c1e","title":"SP - TABOAO DA SERRA","name":"SP - TABOAO DA SERRA","tipo":"Munic\u00edpio","url":"\/dashboard\/details-assets\/008f58c2-d763-4c3b-b501-5d0fe3d88c1e"},"geometry":{"type":"Point","coordinates":[-46.78578,-23.623328]}},{"type":"Feature","properties":{"municipio":"049305e2-2503-4313-b1c7-1ada1a764ea0","title":"SP - SUMARE","name":"SP - SUMARE","tipo":"Munic\u00edpio","url":"\/dashboard\/details-assets\/049305e2-2503-4313-b1c7-1ada1a764ea0"},"geometry":{"type":"Point","coordinates":[-47.265803,-22.822145]}},{"type":"Feature","properties":{"municipio":"d230dfa2-f1a4-451c-8ece-a1f677262243","title":"SP - SOROCABA","name":"SP - SOROCABA","tipo":"Munic\u00edpio","url":"\/dashboard\/details-assets\/d230dfa2-f1a4-451c-8ece-a1f677262243"},"geometry":{"type":"Point","coordinates":[-47.457853,-23.499323]}},{"type":"Feature","properties":{"municipio":"c9d3a78a-779e-4e64-8b03-c8a0e28bd78e","title":"SP - SOCORRO","name":"SP - SOCORRO","tipo":"Munic\u00edpio","url":"\/dashboard\/details-assets\/c9d3a78a-779e-4e64-8b03-c8a0e28bd78e"},"geometry":{"type":"Point","coordinates":[-46.529212,-22.59203]}},{"type":"Feature","properties":{"municipio":"a823fa00-1e39-462d-8c4b-d1e8446f181b","title":"SP - SERTAOZINHO","name":"SP - SERTAOZINHO","tipo":"Munic\u00edpio","url":"\/dashboard\/details-assets\/a823fa00-1e39-462d-8c4b-d1e8446f181b"},"geometry":{"type":"Point","coordinates":[-47.991148,-21.137022]}},{"type":"Feature","properties":{"municipio":"1ec275e8-13f8-4c6c-aa63-72de13ad1c22","title":"SP - SAO VICENTE","name":"SP - SAO VICENTE","tipo":"Munic\u00edpio","url":"\/dashboard\/details-assets\/1ec275e8-13f8-4c6c-aa63-72de13ad1c22"},"geometry":{"type":"Point","coordinates":[-46.384491,-23.967373]}},{"type":"Feature","properties":{"municipio":"2fc8d17a-ed41-41ec-aac8-767a29580434","title":"SP - SERRANA","name":"SP - SERRANA","tipo":"Munic\u00edpio","url":"\/dashboard\/details-assets\/2fc8d17a-ed41-41ec-aac8-767a29580434"},"geometry":{"type":"Point","coordinates":[-47.597762,-21.209478]}},{"type":"Feature","properties":{"municipio":"a23a9622-b269-4c89-b713-b57a8f67da07","title":"SP - SAO SEBASTIAO","name":"SP - SAO SEBASTIAO","tipo":"Munic\u00edpio","url":"\/dashboard\/details-assets\/a23a9622-b269-4c89-b713-b57a8f67da07"},"geometry":{"type":"Point","coordinates":[-45.40268,-23.806688]}},{"type":"Feature","properties":{"municipio":"9cc87777-4a74-49d7-851c-ef5871538cd0","title":"SP - SAO ROQUE","name":"SP - SAO ROQUE","tipo":"Munic\u00edpio","url":"\/dashboard\/details-assets\/9cc87777-4a74-49d7-851c-ef5871538cd0"},"geometry":{"type":"Point","coordinates":[-47.135423,-23.530359]}},{"type":"Feature","properties":{"municipio":"0bf58cdf-1d14-4eba-9f56-fbce14c636ea","title":"SP - SAO PAULO","name":"SP - SAO PAULO","tipo":"Munic\u00edpio","url":"\/dashboard\/details-assets\/0bf58cdf-1d14-4eba-9f56-fbce14c636ea"},"geometry":{"type":"Point","coordinates":[-46.570383,-23.567386]}},{"type":"Feature","properties":{"municipio":"7fe04871-12be-44fe-a3f1-ab874e126359","title":"SP - SAO MIGUEL ARCANJO","name":"SP - SAO MIGUEL ARCANJO","tipo":"Munic\u00edpio","url":"\/dashboard\/details-assets\/7fe04871-12be-44fe-a3f1-ab874e126359"},"geometry":{"type":"Point","coordinates":[-47.995589,-23.87949]}},{"type":"Feature","properties":{"municipio":"31914d76-737d-4401-bf9a-53bb4aa58d50","title":"SP - SAO MANUEL","name":"SP - SAO MANUEL","tipo":"Munic\u00edpio","url":"\/dashboard\/details-assets\/31914d76-737d-4401-bf9a-53bb4aa58d50"},"geometry":{"type":"Point","coordinates":[-48.568763,-22.73646]}},{"type":"Feature","properties":{"municipio":"aa706d31-3ba6-4893-8444-1e095f8ab7cb","title":"SP - SAO JOSE DOS CAMPOS","name":"SP - SAO JOSE DOS CAMPOS","tipo":"Munic\u00edpio","url":"\/dashboard\/details-assets\/aa706d31-3ba6-4893-8444-1e095f8ab7cb"},"geometry":{"type":"Point","coordinates":[-45.899405,-23.23021]}},{"type":"Feature","properties":{"municipio":"b78f37f7-2ad6-421b-b1a8-5454d485859f","title":"SP - SAO JOSE DO RIO PRETO","name":"SP - SAO JOSE DO RIO PRETO","tipo":"Munic\u00edpio","url":"\/dashboard\/details-assets\/b78f37f7-2ad6-421b-b1a8-5454d485859f"},"geometry":{"type":"Point","coordinates":[-49.376227,-20.811761]}},{"type":"Feature","properties":{"municipio":"f3d02e1e-d827-4bde-bdcd-6668a0fdc7f7","title":"SP - SAO JOSE DO RIO PARDO","name":"SP - SAO JOSE DO RIO PARDO","tipo":"Munic\u00edpio","url":"\/dashboard\/details-assets\/f3d02e1e-d827-4bde-bdcd-6668a0fdc7f7"},"geometry":{"type":"Point","coordinates":[-46.887746,-21.59577]}},{"type":"Feature","properties":{"municipio":"c0b21eb1-f655-4d72-b927-368d3f0f9beb","title":"SP - SAO JOAQUIM DA BARRA","name":"SP - SAO JOAQUIM DA BARRA","tipo":"Munic\u00edpio","url":"\/dashboard\/details-assets\/c0b21eb1-f655-4d72-b927-368d3f0f9beb"},"geometry":{"type":"Point","coordinates":[-47.863268,-20.583166]}},{"type":"Feature","properties":{"municipio":"99a41e61-4704-4fd2-b6fe-74b42f7cdb81","title":"SP - SAO JOAO DA BOA VISTA","name":"SP - SAO JOAO DA BOA VISTA","tipo":"Munic\u00edpio","url":"\/dashboard\/details-assets\/99a41e61-4704-4fd2-b6fe-74b42f7cdb81"},"geometry":{"type":"Point","coordinates":[-46.796351,-21.972011]}},{"type":"Feature","properties":{"municipio":"e17134c4-f7c6-43f5-b8b4-d40e011a597a","title":"SP - SAO CARLOS","name":"SP - SAO CARLOS","tipo":"Munic\u00edpio","url":"\/dashboard\/details-assets\/e17134c4-f7c6-43f5-b8b4-d40e011a597a"},"geometry":{"type":"Point","coordinates":[-53.017394,-27.078635]}},{"type":"Feature","properties":{"municipio":"5ba8b585-bcae-4c5e-8c37-34cf81af7d4b","title":"SP - SAO CAETANO DO SUL","name":"SP - SAO CAETANO DO SUL","tipo":"Munic\u00edpio","url":"\/dashboard\/details-assets\/5ba8b585-bcae-4c5e-8c37-34cf81af7d4b"},"geometry":{"type":"Point","coordinates":[-46.571515,-23.614705]}},{"type":"Feature","properties":{"municipio":"832ce2a0-2392-4bcb-a553-fc842d8bf819","title":"SP - SANTOS","name":"SP - SANTOS","tipo":"Munic\u00edpio","url":"\/dashboard\/details-assets\/832ce2a0-2392-4bcb-a553-fc842d8bf819"},"geometry":{"type":"Point","coordinates":[-46.331371,-23.933737]}},{"type":"Feature","properties":{"municipio":"8a6a246b-7f8c-43ab-a27e-f778a3bd08b1","title":"SP - SAO BERNARDO DO CAMPO","name":"SP - SAO BERNARDO DO CAMPO","tipo":"Munic\u00edpio","url":"\/dashboard\/details-assets\/8a6a246b-7f8c-43ab-a27e-f778a3bd08b1"},"geometry":{"type":"Point","coordinates":[-46.550257,-23.710304]}},{"type":"Feature","properties":{"municipio":"2ed9af8d-fafe-42bb-8214-8b0bdb6c1b6b","title":"SP - SANTO ANDRE","name":"SP - SANTO ANDRE","tipo":"Munic\u00edpio","url":"\/dashboard\/details-assets\/2ed9af8d-fafe-42bb-8214-8b0bdb6c1b6b"},"geometry":{"type":"Point","coordinates":[-46.530874,-23.65751]}},{"type":"Feature","properties":{"municipio":"a61fcd90-9c67-4c71-b7b9-8a0c60f594ff","title":"SP - SANTA ROSA DE VITERBO","name":"SP - SANTA ROSA DE VITERBO","tipo":"Munic\u00edpio","url":"\/dashboard\/details-assets\/a61fcd90-9c67-4c71-b7b9-8a0c60f594ff"},"geometry":{"type":"Point","coordinates":[-47.355603,-21.504574]}},{"type":"Feature","properties":{"municipio":"61be2f9a-ae44-4a9b-8667-a018ff17a0d0","title":"SP - SANTANA DE PARNAIBA","name":"SP - SANTANA DE PARNAIBA","tipo":"Munic\u00edpio","url":"\/dashboard\/details-assets\/61be2f9a-ae44-4a9b-8667-a018ff17a0d0"},"geometry":{"type":"Point","coordinates":[-46.922093,-23.449453]}},{"type":"Feature","properties":{"municipio":"5d9f71a2-5cfe-4eca-9fd4-7ddb4ed3996c","title":"SP - SANTA ISABEL","name":"SP - SANTA ISABEL","tipo":"Munic\u00edpio","url":"\/dashboard\/details-assets\/5d9f71a2-5cfe-4eca-9fd4-7ddb4ed3996c"},"geometry":{"type":"Point","coordinates":[-46.224396,-23.312622]}},{"type":"Feature","properties":{"municipio":"bfc88ce1-73fe-448f-bb23-9a32b90d2a3e","title":"SP - SANTA FE DO SUL","name":"SP - SANTA FE DO SUL","tipo":"Munic\u00edpio","url":"\/dashboard\/details-assets\/bfc88ce1-73fe-448f-bb23-9a32b90d2a3e"},"geometry":{"type":"Point","coordinates":[-50.926777,-20.211693]}},{"type":"Feature","properties":{"municipio":"45717903-54ef-4b88-89b2-d8c4bd028077","title":"SP - SANTA CRUZ DO RIO PARDO","name":"SP - SANTA CRUZ DO RIO PARDO","tipo":"Munic\u00edpio","url":"\/dashboard\/details-assets\/45717903-54ef-4b88-89b2-d8c4bd028077"},"geometry":{"type":"Point","coordinates":[-49.624609,-22.905722]}},{"type":"Feature","properties":{"municipio":"c7e73bc9-a33e-4089-bed7-3bf76d841a7b","title":"SP - SANTA BARBARA DOESTE","name":"SP - SANTA BARBARA DOESTE","tipo":"Munic\u00edpio","url":"\/dashboard\/details-assets\/c7e73bc9-a33e-4089-bed7-3bf76d841a7b"},"geometry":{"type":"Point","coordinates":[-47.413955,-22.755393]}},{"type":"Feature","properties":{"municipio":"d3a0676c-aead-407c-8377-efeaef0b33fb","title":"SP - SALTO DE PIRAPORA","name":"SP - SALTO DE PIRAPORA","tipo":"Munic\u00edpio","url":"\/dashboard\/details-assets\/d3a0676c-aead-407c-8377-efeaef0b33fb"},"geometry":{"type":"Point","coordinates":[-47.57468,-23.649132]}},{"type":"Feature","properties":{"municipio":"c1e778e0-bf3c-48c0-914d-51cbca5c2d69","title":"SP - SALTO","name":"SP - SALTO","tipo":"Munic\u00edpio","url":"\/dashboard\/details-assets\/c1e778e0-bf3c-48c0-914d-51cbca5c2d69"},"geometry":{"type":"Point","coordinates":[-47.292416,-23.204074]}},{"type":"Feature","properties":{"municipio":"30cb8d92-61dd-4f89-9405-7b931e781094","title":"SP - ROSANA","name":"SP - ROSANA","tipo":"Munic\u00edpio","url":"\/dashboard\/details-assets\/30cb8d92-61dd-4f89-9405-7b931e781094"},"geometry":{"type":"Point","coordinates":[-53.058654,-22.581175]}},{"type":"Feature","properties":{"municipio":"4868076b-61e2-4206-9b7c-36523bd11f6b","title":"SP - RIO GRANDE DA SERRA","name":"SP - RIO GRANDE DA SERRA","tipo":"Munic\u00edpio","url":"\/dashboard\/details-assets\/4868076b-61e2-4206-9b7c-36523bd11f6b"},"geometry":{"type":"Point","coordinates":[-46.3972,-23.74393]}},{"type":"Feature","properties":{"municipio":"d2557ca2-de04-41ce-8183-5ac904f898a3","title":"SP - RIBEIRAO PRETO","name":"SP - RIBEIRAO PRETO","tipo":"Munic\u00edpio","url":"\/dashboard\/details-assets\/d2557ca2-de04-41ce-8183-5ac904f898a3"},"geometry":{"type":"Point","coordinates":[-47.805476,-21.184834]}},{"type":"Feature","properties":{"municipio":"d4225fd7-4d33-4002-ace9-7fa59c9c9ca5","title":"SP - RIO CLARO","name":"SP - RIO CLARO","tipo":"Munic\u00edpio","url":"\/dashboard\/details-assets\/d4225fd7-4d33-4002-ace9-7fa59c9c9ca5"},"geometry":{"type":"Point","coordinates":[-47.563533,-22.412511]}},{"type":"Feature","properties":{"municipio":"7d4b746d-b35a-495d-875f-a64bd9cd52a4","title":"SP - RIBEIRAO PIRES","name":"SP - RIBEIRAO PIRES","tipo":"Munic\u00edpio","url":"\/dashboard\/details-assets\/7d4b746d-b35a-495d-875f-a64bd9cd52a4"},"geometry":{"type":"Point","coordinates":[-46.415344,-23.707423]}},{"type":"Feature","properties":{"municipio":"5a71697e-a028-4537-a3b7-b88ef9d83fbd","title":"SP - RANCHARIA","name":"SP - RANCHARIA","tipo":"Munic\u00edpio","url":"\/dashboard\/details-assets\/5a71697e-a028-4537-a3b7-b88ef9d83fbd"},"geometry":{"type":"Point","coordinates":[-50.890212,-22.228451]}},{"type":"Feature","properties":{"municipio":"1c89f863-ebe2-4b92-92e8-2d8a51d59651","title":"SP - REGISTRO","name":"SP - REGISTRO","tipo":"Munic\u00edpio","url":"\/dashboard\/details-assets\/1c89f863-ebe2-4b92-92e8-2d8a51d59651"},"geometry":{"type":"Point","coordinates":[-47.841055,-24.494251]}},{"type":"Feature","properties":{"municipio":"0e57a605-af4c-46e6-b1d9-2ea33ddc365b","title":"SP - PROMISSAO","name":"SP - PROMISSAO","tipo":"Munic\u00edpio","url":"\/dashboard\/details-assets\/0e57a605-af4c-46e6-b1d9-2ea33ddc365b"},"geometry":{"type":"Point","coordinates":[-49.857735,-21.538867]}},{"type":"Feature","properties":{"municipio":"990cc025-4557-4b98-b24e-404df7f3380d","title":"SP - PRESIDENTE VENCESLAU","name":"SP - PRESIDENTE VENCESLAU","tipo":"Munic\u00edpio","url":"\/dashboard\/details-assets\/990cc025-4557-4b98-b24e-404df7f3380d"},"geometry":{"type":"Point","coordinates":[-51.840259,-21.87594]}},{"type":"Feature","properties":{"municipio":"54985d74-b823-4010-b2ba-fcf9f6e67619","title":"SP - PRESIDENTE PRUDENTE","name":"SP - PRESIDENTE PRUDENTE","tipo":"Munic\u00edpio","url":"\/dashboard\/details-assets\/54985d74-b823-4010-b2ba-fcf9f6e67619"},"geometry":{"type":"Point","coordinates":[-51.386766,-22.122743]}},{"type":"Feature","properties":{"municipio":"bf0929fa-e3c5-4843-b523-956b354f77d9","title":"SP - PRESIDENTE EPITACIO","name":"SP - PRESIDENTE EPITACIO","tipo":"Munic\u00edpio","url":"\/dashboard\/details-assets\/bf0929fa-e3c5-4843-b523-956b354f77d9"},"geometry":{"type":"Point","coordinates":[-52.115276,-21.768782]}},{"type":"Feature","properties":{"municipio":"01eadcbf-57c5-463b-93de-aeae813821e9","title":"SP - PORTO FERREIRA","name":"SP - PORTO FERREIRA","tipo":"Munic\u00edpio","url":"\/dashboard\/details-assets\/01eadcbf-57c5-463b-93de-aeae813821e9"},"geometry":{"type":"Point","coordinates":[-47.48141,-21.858363]}},{"type":"Feature","properties":{"municipio":"2be1897b-259b-45ef-bf46-d5c38329e96a","title":"SP - PRAIA GRANDE","name":"SP - PRAIA GRANDE","tipo":"Munic\u00edpio","url":"\/dashboard\/details-assets\/2be1897b-259b-45ef-bf46-d5c38329e96a"},"geometry":{"type":"Point","coordinates":[-46.412462,-24.008842]}},{"type":"Feature","properties":{"municipio":"2135d3eb-b160-4ac4-9ad6-1741dfcfa03e","title":"SP - PORTO FELIZ","name":"SP - PORTO FELIZ","tipo":"Munic\u00edpio","url":"\/dashboard\/details-assets\/2135d3eb-b160-4ac4-9ad6-1741dfcfa03e"},"geometry":{"type":"Point","coordinates":[-47.524597,-23.214412]}},{"type":"Feature","properties":{"municipio":"133ecd79-3c3d-46bf-8392-cb5854ca08bf","title":"SP - PONTAL","name":"SP - PONTAL","tipo":"Munic\u00edpio","url":"\/dashboard\/details-assets\/133ecd79-3c3d-46bf-8392-cb5854ca08bf"},"geometry":{"type":"Point","coordinates":[-48.037837,-21.02571]}},{"type":"Feature","properties":{"municipio":"6657db92-e5ad-4548-9b0c-11230ac8407d","title":"SP - POA","name":"SP - POA","tipo":"Munic\u00edpio","url":"\/dashboard\/details-assets\/6657db92-e5ad-4548-9b0c-11230ac8407d"},"geometry":{"type":"Point","coordinates":[-46.34622,-23.528627]}},{"type":"Feature","properties":{"municipio":"50bb4e2f-316e-406c-a817-df6fb4dc8c30","title":"SP - PITANGUEIRAS","name":"SP - PITANGUEIRAS","tipo":"Munic\u00edpio","url":"\/dashboard\/details-assets\/50bb4e2f-316e-406c-a817-df6fb4dc8c30"},"geometry":{"type":"Point","coordinates":[-51.585768,-23.230304]}},{"type":"Feature","properties":{"municipio":"37fbe9a8-c81e-4989-9281-56ee770322b9","title":"SP - PIRASSUNUNGA","name":"SP - PIRASSUNUNGA","tipo":"Munic\u00edpio","url":"\/dashboard\/details-assets\/37fbe9a8-c81e-4989-9281-56ee770322b9"},"geometry":{"type":"Point","coordinates":[-47.425173,-21.994049]}},{"type":"Feature","properties":{"municipio":"d2ef0abe-b415-4afe-af74-e61b9285a5ec","title":"SP - PIRAJUI","name":"SP - PIRAJUI","tipo":"Munic\u00edpio","url":"\/dashboard\/details-assets\/d2ef0abe-b415-4afe-af74-e61b9285a5ec"},"geometry":{"type":"Point","coordinates":[-49.457917,-21.974887]}},{"type":"Feature","properties":{"municipio":"79e735c2-c00f-4e71-a3a3-3b65e36bf7b9","title":"SP - PIRAJU","name":"SP - PIRAJU","tipo":"Munic\u00edpio","url":"\/dashboard\/details-assets\/79e735c2-c00f-4e71-a3a3-3b65e36bf7b9"},"geometry":{"type":"Point","coordinates":[-49.383974,-23.192991]}},{"type":"Feature","properties":{"municipio":"eb9acea4-fcc8-4e3d-acab-6484add4d648","title":"SP - PIRACICABA","name":"SP - PIRACICABA","tipo":"Munic\u00edpio","url":"\/dashboard\/details-assets\/eb9acea4-fcc8-4e3d-acab-6484add4d648"},"geometry":{"type":"Point","coordinates":[-47.646846,-22.723722]}},{"type":"Feature","properties":{"municipio":"c67cee9e-6ad8-48f6-8c43-d0809af2f239","title":"SP - PINDAMONHANGABA","name":"SP - PINDAMONHANGABA","tipo":"Munic\u00edpio","url":"\/dashboard\/details-assets\/c67cee9e-6ad8-48f6-8c43-d0809af2f239"},"geometry":{"type":"Point","coordinates":[-45.462049,-22.926669]}},{"type":"Feature","properties":{"municipio":"72bbf436-1116-43d6-8797-155bbb1b32e6","title":"SP - PILAR DO SUL","name":"SP - PILAR DO SUL","tipo":"Munic\u00edpio","url":"\/dashboard\/details-assets\/72bbf436-1116-43d6-8797-155bbb1b32e6"},"geometry":{"type":"Point","coordinates":[-47.715508,-23.814612]}},{"type":"Feature","properties":{"municipio":"aab0b751-545e-4da8-bbd3-c29a3d3a0369","title":"SP - PIEDADE","name":"SP - PIEDADE","tipo":"Munic\u00edpio","url":"\/dashboard\/details-assets\/aab0b751-545e-4da8-bbd3-c29a3d3a0369"},"geometry":{"type":"Point","coordinates":[-47.418015,-23.714202]}},{"type":"Feature","properties":{"municipio":"c1079f49-58f3-480d-8b70-dc8ac07e022f","title":"SP - PERUIBE","name":"SP - PERUIBE","tipo":"Munic\u00edpio","url":"\/dashboard\/details-assets\/c1079f49-58f3-480d-8b70-dc8ac07e022f"},"geometry":{"type":"Point","coordinates":[-46.997302,-24.319509]}},{"type":"Feature","properties":{"municipio":"4f41c071-1cb1-448d-a4a5-e240eb78d2a3","title":"SP - PEREIRA BARRETO","name":"SP - PEREIRA BARRETO","tipo":"Munic\u00edpio","url":"\/dashboard\/details-assets\/4f41c071-1cb1-448d-a4a5-e240eb78d2a3"},"geometry":{"type":"Point","coordinates":[-51.106661,-20.636669]}},{"type":"Feature","properties":{"municipio":"bd4b90ef-ec1e-4418-83d0-ef9b3046e8f5","title":"SP - PENAPOLIS","name":"SP - PENAPOLIS","tipo":"Munic\u00edpio","url":"\/dashboard\/details-assets\/bd4b90ef-ec1e-4418-83d0-ef9b3046e8f5"},"geometry":{"type":"Point","coordinates":[-50.073036,-21.418383]}},{"type":"Feature","properties":{"municipio":"f5db299d-a5cc-492a-9070-0f9f25b7ba11","title":"SP - PEDREIRA","name":"SP - PEDREIRA","tipo":"Munic\u00edpio","url":"\/dashboard\/details-assets\/f5db299d-a5cc-492a-9070-0f9f25b7ba11"},"geometry":{"type":"Point","coordinates":[-46.897802,-22.743771]}},{"type":"Feature","properties":{"municipio":"88582694-8e2e-4026-a010-413973709e69","title":"SP - PEDERNEIRAS","name":"SP - PEDERNEIRAS","tipo":"Munic\u00edpio","url":"\/dashboard\/details-assets\/88582694-8e2e-4026-a010-413973709e69"},"geometry":{"type":"Point","coordinates":[-48.779681,-22.355491]}},{"type":"Feature","properties":{"municipio":"685ae64a-8e96-4d52-a234-83acba620a62","title":"SP - PAULINIA","name":"SP - PAULINIA","tipo":"Munic\u00edpio","url":"\/dashboard\/details-assets\/685ae64a-8e96-4d52-a234-83acba620a62"},"geometry":{"type":"Point","coordinates":[-47.154386,-22.759922]}},{"type":"Feature","properties":{"municipio":"83283726-dfe4-4f94-9789-6167c74c83ef","title":"SP - PARAGUACU PAULISTA","name":"SP - PARAGUACU PAULISTA","tipo":"Munic\u00edpio","url":"\/dashboard\/details-assets\/83283726-dfe4-4f94-9789-6167c74c83ef"},"geometry":{"type":"Point","coordinates":[-50.575029,-22.417711]}},{"type":"Feature","properties":{"municipio":"24239ba8-ecc1-4200-a05e-e20d6a2af8d4","title":"SP - OSVALDO CRUZ","name":"SP - OSVALDO CRUZ","tipo":"Munic\u00edpio","url":"\/dashboard\/details-assets\/24239ba8-ecc1-4200-a05e-e20d6a2af8d4"},"geometry":{"type":"Point","coordinates":[-50.873139,-21.797083]}},{"type":"Feature","properties":{"municipio":"3d640773-deea-4662-bd76-a2fe9194b70f","title":"SP - OURINHOS","name":"SP - OURINHOS","tipo":"Munic\u00edpio","url":"\/dashboard\/details-assets\/3d640773-deea-4662-bd76-a2fe9194b70f"},"geometry":{"type":"Point","coordinates":[-49.86858,-22.977267]}},{"type":"Feature","properties":{"municipio":"a3f8e010-f81e-4701-a252-682b8585f255","title":"SP - OSASCO","name":"SP - OSASCO","tipo":"Munic\u00edpio","url":"\/dashboard\/details-assets\/a3f8e010-f81e-4701-a252-682b8585f255"},"geometry":{"type":"Point","coordinates":[-46.78881,-23.533612]}},{"type":"Feature","properties":{"municipio":"24041d39-9cd0-4488-ab50-ec118765f967","title":"SP - ORLANDIA","name":"SP - ORLANDIA","tipo":"Munic\u00edpio","url":"\/dashboard\/details-assets\/24041d39-9cd0-4488-ab50-ec118765f967"},"geometry":{"type":"Point","coordinates":[-47.885819,-20.71754]}},{"type":"Feature","properties":{"municipio":"4a07179b-74db-435f-97f0-74672439adec","title":"SP - OLIMPIA","name":"SP - OLIMPIA","tipo":"Munic\u00edpio","url":"\/dashboard\/details-assets\/4a07179b-74db-435f-97f0-74672439adec"},"geometry":{"type":"Point","coordinates":[-48.911061,-20.737112]}},{"type":"Feature","properties":{"municipio":"f619ff3e-1dc2-4427-a900-3c2ad7578bd6","title":"SP - NOVO HORIZONTE","name":"SP - NOVO HORIZONTE","tipo":"Munic\u00edpio","url":"\/dashboard\/details-assets\/f619ff3e-1dc2-4427-a900-3c2ad7578bd6"},"geometry":{"type":"Point","coordinates":[-49.224652,-21.464975]}},{"type":"Feature","properties":{"municipio":"7552614a-8dda-4676-8ea9-488c427bae06","title":"SP - NOVA ODESSA","name":"SP - NOVA ODESSA","tipo":"Munic\u00edpio","url":"\/dashboard\/details-assets\/7552614a-8dda-4676-8ea9-488c427bae06"},"geometry":{"type":"Point","coordinates":[-47.293635,-22.782795]}},{"type":"Feature","properties":{"municipio":"45048ec3-bd67-4d76-8b32-e137ed05f9db","title":"SP - MONTE MOR","name":"SP - MONTE MOR","tipo":"Munic\u00edpio","url":"\/dashboard\/details-assets\/45048ec3-bd67-4d76-8b32-e137ed05f9db"},"geometry":{"type":"Point","coordinates":[-47.313269,-22.945522]}},{"type":"Feature","properties":{"municipio":"8bc2a817-e8bb-48d7-a214-e63e0dea7a2d","title":"SP - MONTE APRAZIVEL","name":"SP - MONTE APRAZIVEL","tipo":"Munic\u00edpio","url":"\/dashboard\/details-assets\/8bc2a817-e8bb-48d7-a214-e63e0dea7a2d"},"geometry":{"type":"Point","coordinates":[-49.714116,-20.77214]}},{"type":"Feature","properties":{"municipio":"f587b9a5-160c-4b8b-92c5-c378d1511576","title":"SP - MONGAGUA","name":"SP - MONGAGUA","tipo":"Munic\u00edpio","url":"\/dashboard\/details-assets\/f587b9a5-160c-4b8b-92c5-c378d1511576"},"geometry":{"type":"Point","coordinates":[-46.619993,-24.094116]}},{"type":"Feature","properties":{"municipio":"7894d8cd-e0e7-471d-b6ed-c60080425a18","title":"SP - MONTE ALTO","name":"SP - MONTE ALTO","tipo":"Munic\u00edpio","url":"\/dashboard\/details-assets\/7894d8cd-e0e7-471d-b6ed-c60080425a18"},"geometry":{"type":"Point","coordinates":[-48.496651,-21.263864]}},{"type":"Feature","properties":{"municipio":"121282cb-f5ed-4b5c-9916-485810d0638d","title":"SP - MOJI MIRIM","name":"SP - MOJI MIRIM","tipo":"Munic\u00edpio","url":"\/dashboard\/details-assets\/121282cb-f5ed-4b5c-9916-485810d0638d"},"geometry":{"type":"Point","coordinates":[-46.956367,-22.432695]}},{"type":"Feature","properties":{"municipio":"f229c8e3-aeec-447d-9315-46ef4f1e4192","title":"SP - MOGI DAS CRUZES","name":"SP - MOGI DAS CRUZES","tipo":"Munic\u00edpio","url":"\/dashboard\/details-assets\/f229c8e3-aeec-447d-9315-46ef4f1e4192"},"geometry":{"type":"Point","coordinates":[-46.19676,-23.522706]}},{"type":"Feature","properties":{"municipio":"388aba58-7a96-4dc9-9fad-064bd0ba3040","title":"SP - MOGI GUACU","name":"SP - MOGI GUACU","tipo":"Munic\u00edpio","url":"\/dashboard\/details-assets\/388aba58-7a96-4dc9-9fad-064bd0ba3040"},"geometry":{"type":"Point","coordinates":[-46.944474,-22.36572]}},{"type":"Feature","properties":{"municipio":"7bde4b55-76ef-4662-9b40-c596cc0cbc12","title":"SP - MOCOCA","name":"SP - MOCOCA","tipo":"Munic\u00edpio","url":"\/dashboard\/details-assets\/7bde4b55-76ef-4662-9b40-c596cc0cbc12"},"geometry":{"type":"Point","coordinates":[-47.007171,-21.468991]}},{"type":"Feature","properties":{"municipio":"fd6f645a-a725-4c9f-94a6-b91bf5599c3f","title":"SP - MIRASSOL","name":"SP - MIRASSOL","tipo":"Munic\u00edpio","url":"\/dashboard\/details-assets\/fd6f645a-a725-4c9f-94a6-b91bf5599c3f"},"geometry":{"type":"Point","coordinates":[-49.512139,-20.817004]}},{"type":"Feature","properties":{"municipio":"c5939de9-d80d-4dc3-b924-2e5a8e2034f5","title":"SP - MIRANTE DO PARANAPANEMA","name":"SP - MIRANTE DO PARANAPANEMA","tipo":"Munic\u00edpio","url":"\/dashboard\/details-assets\/c5939de9-d80d-4dc3-b924-2e5a8e2034f5"},"geometry":{"type":"Point","coordinates":[-51.905794,-22.290559]}},{"type":"Feature","properties":{"municipio":"34883659-0cee-4fc9-a027-fef4d0d9e4ce","title":"SP - MIRANDOPOLIS","name":"SP - MIRANDOPOLIS","tipo":"Munic\u00edpio","url":"\/dashboard\/details-assets\/34883659-0cee-4fc9-a027-fef4d0d9e4ce"},"geometry":{"type":"Point","coordinates":[-51.102338,-21.133105]}},{"type":"Feature","properties":{"municipio":"2162c475-beec-4819-b28b-8dcfa04e8eec","title":"SP - MIRACATU","name":"SP - MIRACATU","tipo":"Munic\u00edpio","url":"\/dashboard\/details-assets\/2162c475-beec-4819-b28b-8dcfa04e8eec"},"geometry":{"type":"Point","coordinates":[-47.462913,-24.277132]}},{"type":"Feature","properties":{"municipio":"a3c18e4a-3a19-4c37-b452-5fb672d44d8a","title":"SP - MAUA","name":"SP - MAUA","tipo":"Munic\u00edpio","url":"\/dashboard\/details-assets\/a3c18e4a-3a19-4c37-b452-5fb672d44d8a"},"geometry":{"type":"Point","coordinates":[-46.461709,-23.668163]}},{"type":"Feature","properties":{"municipio":"beb0a593-475f-47a9-b135-7d0f2593b503","title":"SP - MATAO","name":"SP - MATAO","tipo":"Munic\u00edpio","url":"\/dashboard\/details-assets\/beb0a593-475f-47a9-b135-7d0f2593b503"},"geometry":{"type":"Point","coordinates":[-48.364423,-21.602989]}},{"type":"Feature","properties":{"municipio":"05967133-6e3c-4f6e-bf3a-6af86dd2a03f","title":"SP - MARTINOPOLIS","name":"SP - MARTINOPOLIS","tipo":"Munic\u00edpio","url":"\/dashboard\/details-assets\/05967133-6e3c-4f6e-bf3a-6af86dd2a03f"},"geometry":{"type":"Point","coordinates":[-51.172105,-22.149528]}},{"type":"Feature","properties":{"municipio":"55bfaa62-6e1b-4b22-b106-87bf5aef4b5b","title":"SP - MARILIA","name":"SP - MARILIA","tipo":"Munic\u00edpio","url":"\/dashboard\/details-assets\/55bfaa62-6e1b-4b22-b106-87bf5aef4b5b"},"geometry":{"type":"Point","coordinates":[-49.950529,-22.217585]}},{"type":"Feature","properties":{"municipio":"2c804e31-9a69-4bff-b72d-0c76f7af6f67","title":"SP - MAIRIPORA","name":"SP - MAIRIPORA","tipo":"Munic\u00edpio","url":"\/dashboard\/details-assets\/2c804e31-9a69-4bff-b72d-0c76f7af6f67"},"geometry":{"type":"Point","coordinates":[-46.590279,-23.319505]}},{"type":"Feature","properties":{"municipio":"b59fbe99-4620-4274-b18b-9be68629a696","title":"SP - MAIRINQUE","name":"SP - MAIRINQUE","tipo":"Munic\u00edpio","url":"\/dashboard\/details-assets\/b59fbe99-4620-4274-b18b-9be68629a696"},"geometry":{"type":"Point","coordinates":[-47.194723,-23.529723]}},{"type":"Feature","properties":{"municipio":"847aad64-4d40-41ab-8bff-c8a20d26e9c0","title":"SP - LOUVEIRA","name":"SP - LOUVEIRA","tipo":"Munic\u00edpio","url":"\/dashboard\/details-assets\/847aad64-4d40-41ab-8bff-c8a20d26e9c0"},"geometry":{"type":"Point","coordinates":[-46.94644,-23.086778]}},{"type":"Feature","properties":{"municipio":"7539afa0-5520-46ce-9623-b074cdf30408","title":"SP - LORENA","name":"SP - LORENA","tipo":"Munic\u00edpio","url":"\/dashboard\/details-assets\/7539afa0-5520-46ce-9623-b074cdf30408"},"geometry":{"type":"Point","coordinates":[-45.124248,-22.731693]}},{"type":"Feature","properties":{"municipio":"1fbeb7a7-cf0b-44c3-aa81-cc90223cbf48","title":"SP - LINS","name":"SP - LINS","tipo":"Munic\u00edpio","url":"\/dashboard\/details-assets\/1fbeb7a7-cf0b-44c3-aa81-cc90223cbf48"},"geometry":{"type":"Point","coordinates":[-49.751423,-21.672346]}},{"type":"Feature","properties":{"municipio":"61b5c5fc-c7bd-44e6-bb2f-5cfe7848d408","title":"SP - LIMEIRA","name":"SP - LIMEIRA","tipo":"Munic\u00edpio","url":"\/dashboard\/details-assets\/61b5c5fc-c7bd-44e6-bb2f-5cfe7848d408"},"geometry":{"type":"Point","coordinates":[-47.40194,-22.562194]}},{"type":"Feature","properties":{"municipio":"f230dc7e-fcae-4e9a-9840-ec330226510e","title":"SP - LENCOIS PAULISTA","name":"SP - LENCOIS PAULISTA","tipo":"Munic\u00edpio","url":"\/dashboard\/details-assets\/f230dc7e-fcae-4e9a-9840-ec330226510e"},"geometry":{"type":"Point","coordinates":[-48.798682,-22.597507]}},{"type":"Feature","properties":{"municipio":"4a8d4cf2-b0bd-4779-aa85-17c39b641068","title":"SP - JUQUITIBA","name":"SP - JUQUITIBA","tipo":"Munic\u00edpio","url":"\/dashboard\/details-assets\/4a8d4cf2-b0bd-4779-aa85-17c39b641068"},"geometry":{"type":"Point","coordinates":[-47.081594,-23.935689]}},{"type":"Feature","properties":{"municipio":"92761691-14f3-4b6b-b9c6-85091690d47a","title":"SP - LEME","name":"SP - LEME","tipo":"Munic\u00edpio","url":"\/dashboard\/details-assets\/92761691-14f3-4b6b-b9c6-85091690d47a"},"geometry":{"type":"Point","coordinates":[-47.388708,-22.185436]}},{"type":"Feature","properties":{"municipio":"1727f231-4722-43f2-a804-7745019d6cf8","title":"SP - JUNDIAI","name":"SP - JUNDIAI","tipo":"Munic\u00edpio","url":"\/dashboard\/details-assets\/1727f231-4722-43f2-a804-7745019d6cf8"},"geometry":{"type":"Point","coordinates":[-46.885274,-23.187668]}},{"type":"Feature","properties":{"municipio":"5876bf92-e961-42ac-b306-072f75b8ed72","title":"SP - JAU","name":"SP - JAU","tipo":"Munic\u00edpio","url":"\/dashboard\/details-assets\/5876bf92-e961-42ac-b306-072f75b8ed72"},"geometry":{"type":"Point","coordinates":[-48.558141,-22.295791]}},{"type":"Feature","properties":{"municipio":"10552890-9e15-411e-a72a-3ed85cb9c4ff","title":"SP - JOSE BONIFACIO","name":"SP - JOSE BONIFACIO","tipo":"Munic\u00edpio","url":"\/dashboard\/details-assets\/10552890-9e15-411e-a72a-3ed85cb9c4ff"},"geometry":{"type":"Point","coordinates":[-49.686283,-21.053719]}},{"type":"Feature","properties":{"municipio":"e202c284-7d09-4767-bbeb-2b4581ec9fa4","title":"SP - JARDINOPOLIS","name":"SP - JARDINOPOLIS","tipo":"Munic\u00edpio","url":"\/dashboard\/details-assets\/e202c284-7d09-4767-bbeb-2b4581ec9fa4"},"geometry":{"type":"Point","coordinates":[-47.777205,-21.027762]}},{"type":"Feature","properties":{"municipio":"bfc7f650-dd4d-4957-8355-284f201a8eb9","title":"SP - JANDIRA","name":"SP - JANDIRA","tipo":"Munic\u00edpio","url":"\/dashboard\/details-assets\/bfc7f650-dd4d-4957-8355-284f201a8eb9"},"geometry":{"type":"Point","coordinates":[-46.905221,-23.529939]}},{"type":"Feature","properties":{"municipio":"d5eeacbd-65c3-40e4-b248-f4b52dcae2c2","title":"SP - JALES","name":"SP - JALES","tipo":"Munic\u00edpio","url":"\/dashboard\/details-assets\/d5eeacbd-65c3-40e4-b248-f4b52dcae2c2"},"geometry":{"type":"Point","coordinates":[-50.550356,-20.267853]}},{"type":"Feature","properties":{"municipio":"edc55677-7c96-4342-8eaa-668e4deb1057","title":"SP - JAGUARIUNA","name":"SP - JAGUARIUNA","tipo":"Munic\u00edpio","url":"\/dashboard\/details-assets\/edc55677-7c96-4342-8eaa-668e4deb1057"},"geometry":{"type":"Point","coordinates":[-46.982343,-22.706782]}},{"type":"Feature","properties":{"municipio":"71cc3991-26bd-411b-bb96-ee73cc3b7da4","title":"SP - JACAREI","name":"SP - JACAREI","tipo":"Munic\u00edpio","url":"\/dashboard\/details-assets\/71cc3991-26bd-411b-bb96-ee73cc3b7da4"},"geometry":{"type":"Point","coordinates":[-45.969593,-23.30488]}},{"type":"Feature","properties":{"municipio":"a6eff2fb-5467-4547-955c-d48189ebac53","title":"SP - JABOTICABAL","name":"SP - JABOTICABAL","tipo":"Munic\u00edpio","url":"\/dashboard\/details-assets\/a6eff2fb-5467-4547-955c-d48189ebac53"},"geometry":{"type":"Point","coordinates":[-48.32035,-21.254471]}},{"type":"Feature","properties":{"municipio":"0f72dc56-8923-4271-916a-272e6a595def","title":"SP - ITUPEVA","name":"SP - ITUPEVA","tipo":"Munic\u00edpio","url":"\/dashboard\/details-assets\/0f72dc56-8923-4271-916a-272e6a595def"},"geometry":{"type":"Point","coordinates":[-47.055701,-23.15341]}},{"type":"Feature","properties":{"municipio":"87658f99-54c3-4f86-93d4-9acd930fe74b","title":"SP - ITUVERAVA","name":"SP - ITUVERAVA","tipo":"Munic\u00edpio","url":"\/dashboard\/details-assets\/87658f99-54c3-4f86-93d4-9acd930fe74b"},"geometry":{"type":"Point","coordinates":[-47.780416,-20.336288]}},{"type":"Feature","properties":{"municipio":"e5b27ad6-7c22-4a07-baea-e0791703426f","title":"SP - ITU","name":"SP - ITU","tipo":"Munic\u00edpio","url":"\/dashboard\/details-assets\/e5b27ad6-7c22-4a07-baea-e0791703426f"},"geometry":{"type":"Point","coordinates":[-47.29975,-23.265442]}},{"type":"Feature","properties":{"municipio":"ca99a79b-0221-47a2-8347-ade7aadfc6eb","title":"SP - ITATIBA","name":"SP - ITATIBA","tipo":"Munic\u00edpio","url":"\/dashboard\/details-assets\/ca99a79b-0221-47a2-8347-ade7aadfc6eb"},"geometry":{"type":"Point","coordinates":[-46.837558,-23.004853]}},{"type":"Feature","properties":{"municipio":"025e1ce4-9245-4597-97bd-0edfe67eeb78","title":"SP - ITAQUAQUECETUBA","name":"SP - ITAQUAQUECETUBA","tipo":"Munic\u00edpio","url":"\/dashboard\/details-assets\/025e1ce4-9245-4597-97bd-0edfe67eeb78"},"geometry":{"type":"Point","coordinates":[-46.351603,-23.476897]}},{"type":"Feature","properties":{"municipio":"d8c355be-5393-4f98-8224-bd881ef235f6","title":"SP - ITARARE","name":"SP - ITARARE","tipo":"Munic\u00edpio","url":"\/dashboard\/details-assets\/d8c355be-5393-4f98-8224-bd881ef235f6"},"geometry":{"type":"Point","coordinates":[-49.33612,-24.112138]}},{"type":"Feature","properties":{"municipio":"16db561c-6e5a-4346-a2f9-27f084110296","title":"SP - ITAPOLIS","name":"SP - ITAPOLIS","tipo":"Munic\u00edpio","url":"\/dashboard\/details-assets\/16db561c-6e5a-4346-a2f9-27f084110296"},"geometry":{"type":"Point","coordinates":[-48.813392,-21.594704]}},{"type":"Feature","properties":{"municipio":"a5b7795a-fb8c-4535-9b8c-58859a2befdc","title":"SP - ITAPIRA","name":"SP - ITAPIRA","tipo":"Munic\u00edpio","url":"\/dashboard\/details-assets\/a5b7795a-fb8c-4535-9b8c-58859a2befdc"},"geometry":{"type":"Point","coordinates":[-46.821248,-22.436005]}},{"type":"Feature","properties":{"municipio":"8968c6b8-cc86-4d01-9232-96150047aec4","title":"SP - ITAPEVI","name":"SP - ITAPEVI","tipo":"Munic\u00edpio","url":"\/dashboard\/details-assets\/8968c6b8-cc86-4d01-9232-96150047aec4"},"geometry":{"type":"Point","coordinates":[-46.933373,-23.546934]}},{"type":"Feature","properties":{"municipio":"2c64b966-f550-43f1-9d77-0d6a625c718f","title":"SP - ITAPEVA","name":"SP - ITAPEVA","tipo":"Munic\u00edpio","url":"\/dashboard\/details-assets\/2c64b966-f550-43f1-9d77-0d6a625c718f"},"geometry":{"type":"Point","coordinates":[-48.877389,-23.983438]}},{"type":"Feature","properties":{"municipio":"0eb9cfdd-45ac-4883-a485-dd1a27e67695","title":"SP - ITAPETININGA","name":"SP - ITAPETININGA","tipo":"Munic\u00edpio","url":"\/dashboard\/details-assets\/0eb9cfdd-45ac-4883-a485-dd1a27e67695"},"geometry":{"type":"Point","coordinates":[-48.046143,-23.587872]}},{"type":"Feature","properties":{"municipio":"1635c550-b747-4b55-9f04-2e4fdf9710da","title":"SP - ITAPECERICA DA SERRA","name":"SP - ITAPECERICA DA SERRA","tipo":"Munic\u00edpio","url":"\/dashboard\/details-assets\/1635c550-b747-4b55-9f04-2e4fdf9710da"},"geometry":{"type":"Point","coordinates":[-46.850552,-23.715357]}},{"type":"Feature","properties":{"municipio":"c7af4c26-c4c0-4107-9fba-733327d0ce36","title":"SP - ITANHAEM","name":"SP - ITANHAEM","tipo":"Munic\u00edpio","url":"\/dashboard\/details-assets\/c7af4c26-c4c0-4107-9fba-733327d0ce36"},"geometry":{"type":"Point","coordinates":[-46.790991,-24.186121]}},{"type":"Feature","properties":{"municipio":"0ba14eb4-22b5-4925-a341-d993c927a610","title":"SP - ITAI","name":"SP - ITAI","tipo":"Munic\u00edpio","url":"\/dashboard\/details-assets\/0ba14eb4-22b5-4925-a341-d993c927a610"},"geometry":{"type":"Point","coordinates":[-49.081032,-23.419055]}},{"type":"Feature","properties":{"municipio":"6cd4d20b-5259-452a-acfb-882e51303acc","title":"SP - INDAIATUBA","name":"SP - INDAIATUBA","tipo":"Munic\u00edpio","url":"\/dashboard\/details-assets\/6cd4d20b-5259-452a-acfb-882e51303acc"},"geometry":{"type":"Point","coordinates":[-47.212309,-23.081646]}},{"type":"Feature","properties":{"municipio":"f3dcf7a0-9d07-41d0-badd-b62be65fd7f1","title":"SP - ILHA SOLTEIRA","name":"SP - ILHA SOLTEIRA","tipo":"Munic\u00edpio","url":"\/dashboard\/details-assets\/f3dcf7a0-9d07-41d0-badd-b62be65fd7f1"},"geometry":{"type":"Point","coordinates":[-51.344891,-20.429372]}},{"type":"Feature","properties":{"municipio":"6cc74e6c-bf2c-4f76-b0e0-fc42f047abb7","title":"SP - ILHABELA","name":"SP - ILHABELA","tipo":"Munic\u00edpio","url":"\/dashboard\/details-assets\/6cc74e6c-bf2c-4f76-b0e0-fc42f047abb7"},"geometry":{"type":"Point","coordinates":[-45.354355,-23.807791]}},{"type":"Feature","properties":{"municipio":"80e3f149-16fa-497d-b5b3-9aea2a0547e9","title":"SP - IGUAPE","name":"SP - IGUAPE","tipo":"Munic\u00edpio","url":"\/dashboard\/details-assets\/80e3f149-16fa-497d-b5b3-9aea2a0547e9"},"geometry":{"type":"Point","coordinates":[-47.553137,-24.706954]}},{"type":"Feature","properties":{"municipio":"dc9d522f-e6bb-4fb0-9559-1b03af72b07a","title":"SP - IBIUNA","name":"SP - IBIUNA","tipo":"Munic\u00edpio","url":"\/dashboard\/details-assets\/dc9d522f-e6bb-4fb0-9559-1b03af72b07a"},"geometry":{"type":"Point","coordinates":[-47.220491,-23.652632]}},{"type":"Feature","properties":{"municipio":"73c5369e-54c7-431a-af17-99dfcc59bcb6","title":"SP - IBITINGA","name":"SP - IBITINGA","tipo":"Munic\u00edpio","url":"\/dashboard\/details-assets\/73c5369e-54c7-431a-af17-99dfcc59bcb6"},"geometry":{"type":"Point","coordinates":[-48.827695,-21.757083]}},{"type":"Feature","properties":{"municipio":"9827ee09-d7f2-4231-80ae-1fc721b4d735","title":"SP - IBATE","name":"SP - IBATE","tipo":"Munic\u00edpio","url":"\/dashboard\/details-assets\/9827ee09-d7f2-4231-80ae-1fc721b4d735"},"geometry":{"type":"Point","coordinates":[-48.002388,-21.955602]}},{"type":"Feature","properties":{"municipio":"4f0b3573-9770-422c-b019-34e3d643ec8c","title":"SP - HORTOLANDIA","name":"SP - HORTOLANDIA","tipo":"Munic\u00edpio","url":"\/dashboard\/details-assets\/4f0b3573-9770-422c-b019-34e3d643ec8c"},"geometry":{"type":"Point","coordinates":[-47.221097,-22.858395]}},{"type":"Feature","properties":{"municipio":"f038751f-6e48-40cc-a4e3-f49bbcbb6b54","title":"SP - GUARULHOS","name":"SP - GUARULHOS","tipo":"Munic\u00edpio","url":"\/dashboard\/details-assets\/f038751f-6e48-40cc-a4e3-f49bbcbb6b54"},"geometry":{"type":"Point","coordinates":[-46.531084,-23.468506]}},{"type":"Feature","properties":{"municipio":"24d7d1fc-d6ad-4c80-9b6a-93fb4a91c4d2","title":"SP - GUARUJA","name":"SP - GUARUJA","tipo":"Munic\u00edpio","url":"\/dashboard\/details-assets\/24d7d1fc-d6ad-4c80-9b6a-93fb4a91c4d2"},"geometry":{"type":"Point","coordinates":[-46.249034,-23.995149]}},{"type":"Feature","properties":{"municipio":"5a18e98c-632e-41b4-884b-62b09eebf8cb","title":"SP - GUARATINGUETA","name":"SP - GUARATINGUETA","tipo":"Munic\u00edpio","url":"\/dashboard\/details-assets\/5a18e98c-632e-41b4-884b-62b09eebf8cb"},"geometry":{"type":"Point","coordinates":[-45.1916,-22.817425]}},{"type":"Feature","properties":{"municipio":"905148e7-1dc8-4569-b4ff-92b55b1547e0","title":"SP - GUARARAPES","name":"SP - GUARARAPES","tipo":"Munic\u00edpio","url":"\/dashboard\/details-assets\/905148e7-1dc8-4569-b4ff-92b55b1547e0"},"geometry":{"type":"Point","coordinates":[-50.642639,-21.253446]}},{"type":"Feature","properties":{"municipio":"02ad786f-ddaf-4555-af1e-4c64dbc89711","title":"SP - GUAIRA","name":"SP - GUAIRA","tipo":"Munic\u00edpio","url":"\/dashboard\/details-assets\/02ad786f-ddaf-4555-af1e-4c64dbc89711"},"geometry":{"type":"Point","coordinates":[-54.246758,-24.085275]}},{"type":"Feature","properties":{"municipio":"82a3a8a1-cb57-4877-ad82-18668b2555bc","title":"SP - GARCA","name":"SP - GARCA","tipo":"Munic\u00edpio","url":"\/dashboard\/details-assets\/82a3a8a1-cb57-4877-ad82-18668b2555bc"},"geometry":{"type":"Point","coordinates":[-49.65653,-22.210709]}},{"type":"Feature","properties":{"municipio":"c3d397fe-1f99-4e20-a524-7a0f349d14a5","title":"SP - FRANCO DA ROCHA","name":"SP - FRANCO DA ROCHA","tipo":"Munic\u00edpio","url":"\/dashboard\/details-assets\/c3d397fe-1f99-4e20-a524-7a0f349d14a5"},"geometry":{"type":"Point","coordinates":[-46.727875,-23.320302]}},{"type":"Feature","properties":{"municipio":"e5b0de71-34fa-4733-8a99-7731a0d50c3d","title":"SP - FRANCA","name":"SP - FRANCA","tipo":"Munic\u00edpio","url":"\/dashboard\/details-assets\/e5b0de71-34fa-4733-8a99-7731a0d50c3d"},"geometry":{"type":"Point","coordinates":[-47.402332,-20.536097]}},{"type":"Feature","properties":{"municipio":"ff3b2eea-f14c-461e-9c9d-a79a24196cdc","title":"SP - FRANCISCO MORATO","name":"SP - FRANCISCO MORATO","tipo":"Munic\u00edpio","url":"\/dashboard\/details-assets\/ff3b2eea-f14c-461e-9c9d-a79a24196cdc"},"geometry":{"type":"Point","coordinates":[-46.732527,-23.275825]}},{"type":"Feature","properties":{"municipio":"ef079fb1-cde2-4424-ae38-edd4318628d7","title":"SP - FERRAZ DE VASCONCELOS","name":"SP - FERRAZ DE VASCONCELOS","tipo":"Munic\u00edpio","url":"\/dashboard\/details-assets\/ef079fb1-cde2-4424-ae38-edd4318628d7"},"geometry":{"type":"Point","coordinates":[-46.364493,-23.528796]}},{"type":"Feature","properties":{"municipio":"8b98454a-f2bc-4a14-ba27-66cadccd3b02","title":"SP - FERNANDOPOLIS","name":"SP - FERNANDOPOLIS","tipo":"Munic\u00edpio","url":"\/dashboard\/details-assets\/8b98454a-f2bc-4a14-ba27-66cadccd3b02"},"geometry":{"type":"Point","coordinates":[-50.248748,-20.282383]}},{"type":"Feature","properties":{"municipio":"dc2c5be9-b143-4f61-a2a1-b182aff3f866","title":"SP - ESPIRITO SANTO DO PINHAL","name":"SP - ESPIRITO SANTO DO PINHAL","tipo":"Munic\u00edpio","url":"\/dashboard\/details-assets\/dc2c5be9-b143-4f61-a2a1-b182aff3f866"},"geometry":{"type":"Point","coordinates":[-46.745514,-22.197053]}},{"type":"Feature","properties":{"municipio":"d07d9552-9bef-4086-a875-6add06b23dc9","title":"SP - EMBUGUACU","name":"SP - EMBUGUACU","tipo":"Munic\u00edpio","url":"\/dashboard\/details-assets\/d07d9552-9bef-4086-a875-6add06b23dc9"},"geometry":{"type":"Point","coordinates":[-46.817109,-23.831829]}},{"type":"Feature","properties":{"municipio":"23ef4b5b-09a5-455d-90d6-451acfaf8b05","title":"SP - EMBU DAS ARTES","name":"SP - EMBU DAS ARTES","tipo":"Munic\u00edpio","url":"\/dashboard\/details-assets\/23ef4b5b-09a5-455d-90d6-451acfaf8b05"},"geometry":{"type":"Point","coordinates":[-46.85086,-23.647312]}},{"type":"Feature","properties":{"municipio":"aeb7f05f-ea15-4c53-afc8-82a9d5ce47cc","title":"SP - ELDORADO","name":"SP - ELDORADO","tipo":"Munic\u00edpio","url":"\/dashboard\/details-assets\/aeb7f05f-ea15-4c53-afc8-82a9d5ce47cc"},"geometry":{"type":"Point","coordinates":[-54.280028,-23.774054]}},{"type":"Feature","properties":{"municipio":"0d0f9cc9-7d13-4802-8021-ad686f344f72","title":"SP - DRACENA","name":"SP - DRACENA","tipo":"Munic\u00edpio","url":"\/dashboard\/details-assets\/0d0f9cc9-7d13-4802-8021-ad686f344f72"},"geometry":{"type":"Point","coordinates":[-51.53405,-21.486138]}},{"type":"Feature","properties":{"municipio":"0636402a-f4f0-4d11-a7b1-36a94c60be8e","title":"SP - DIADEMA","name":"SP - DIADEMA","tipo":"Munic\u00edpio","url":"\/dashboard\/details-assets\/0636402a-f4f0-4d11-a7b1-36a94c60be8e"},"geometry":{"type":"Point","coordinates":[-46.623381,-23.689295]}},{"type":"Feature","properties":{"municipio":"e0195605-c30b-4841-87b1-addf7b4d195b","title":"SP - CUBATAO","name":"SP - CUBATAO","tipo":"Munic\u00edpio","url":"\/dashboard\/details-assets\/e0195605-c30b-4841-87b1-addf7b4d195b"},"geometry":{"type":"Point","coordinates":[-46.420032,-23.883839]}},{"type":"Feature","properties":{"municipio":"873a693e-f5e8-4654-8ea2-368bd07b7068","title":"SP - CRUZEIRO","name":"SP - CRUZEIRO","tipo":"Munic\u00edpio","url":"\/dashboard\/details-assets\/873a693e-f5e8-4654-8ea2-368bd07b7068"},"geometry":{"type":"Point","coordinates":[-44.961732,-22.57775]}},{"type":"Feature","properties":{"municipio":"9cd6bfae-79a1-4c5e-9ea7-5d5cb3b72eae","title":"SP - COTIA","name":"SP - COTIA","tipo":"Munic\u00edpio","url":"\/dashboard\/details-assets\/9cd6bfae-79a1-4c5e-9ea7-5d5cb3b72eae"},"geometry":{"type":"Point","coordinates":[-46.931846,-23.603514]}},{"type":"Feature","properties":{"municipio":"273dfbf6-cd92-4425-83b1-5a480ba6ab27","title":"SP - COSMOPOLIS","name":"SP - COSMOPOLIS","tipo":"Munic\u00edpio","url":"\/dashboard\/details-assets\/273dfbf6-cd92-4425-83b1-5a480ba6ab27"},"geometry":{"type":"Point","coordinates":[-47.196771,-22.645785]}},{"type":"Feature","properties":{"municipio":"206ccd75-ae14-43b9-b381-e83c520a98fc","title":"SP - CERQUEIRA CESAR","name":"SP - CERQUEIRA CESAR","tipo":"Munic\u00edpio","url":"\/dashboard\/details-assets\/206ccd75-ae14-43b9-b381-e83c520a98fc"},"geometry":{"type":"Point","coordinates":[-49.16533,-23.034797]}},{"type":"Feature","properties":{"municipio":"ac1bcd82-ac5a-4ada-9014-9b71d6e3e220","title":"SP - CERQUILHO","name":"SP - CERQUILHO","tipo":"Munic\u00edpio","url":"\/dashboard\/details-assets\/ac1bcd82-ac5a-4ada-9014-9b71d6e3e220"},"geometry":{"type":"Point","coordinates":[-47.737531,-23.168672]}},{"type":"Feature","properties":{"municipio":"4cde9c77-4cb7-4683-b705-b26976ee5639","title":"SP - CATANDUVA","name":"SP - CATANDUVA","tipo":"Munic\u00edpio","url":"\/dashboard\/details-assets\/4cde9c77-4cb7-4683-b705-b26976ee5639"},"geometry":{"type":"Point","coordinates":[-48.975871,-21.139538]}},{"type":"Feature","properties":{"municipio":"6ef74a13-f050-448d-8b7d-372aef95b0b4","title":"SP - CASA BRANCA","name":"SP - CASA BRANCA","tipo":"Munic\u00edpio","url":"\/dashboard\/details-assets\/6ef74a13-f050-448d-8b7d-372aef95b0b4"},"geometry":{"type":"Point","coordinates":[-47.079758,-21.777987]}},{"type":"Feature","properties":{"municipio":"394f40e1-be57-4833-bc67-7e834f0e3a20","title":"SP - CARAPICUIBA","name":"SP - CARAPICUIBA","tipo":"Munic\u00edpio","url":"\/dashboard\/details-assets\/394f40e1-be57-4833-bc67-7e834f0e3a20"},"geometry":{"type":"Point","coordinates":[-46.841445,-23.535249]}},{"type":"Feature","properties":{"municipio":"98edeef5-11a7-4870-aee3-2206fa01ecd3","title":"SP - CARAGUATATUBA","name":"SP - CARAGUATATUBA","tipo":"Munic\u00edpio","url":"\/dashboard\/details-assets\/98edeef5-11a7-4870-aee3-2206fa01ecd3"},"geometry":{"type":"Point","coordinates":[-45.410818,-23.622006]}},{"type":"Feature","properties":{"municipio":"cbbc7a8c-326f-4d24-a4a2-718fb4925fe9","title":"SP - CAPAO BONITO","name":"SP - CAPAO BONITO","tipo":"Munic\u00edpio","url":"\/dashboard\/details-assets\/cbbc7a8c-326f-4d24-a4a2-718fb4925fe9"},"geometry":{"type":"Point","coordinates":[-48.351435,-24.006801]}},{"type":"Feature","properties":{"municipio":"2155b21e-b440-48f8-ac34-56784261a990","title":"SP - CAPIVARI","name":"SP - CAPIVARI","tipo":"Munic\u00edpio","url":"\/dashboard\/details-assets\/2155b21e-b440-48f8-ac34-56784261a990"},"geometry":{"type":"Point","coordinates":[-47.502206,-22.999549]}},{"type":"Feature","properties":{"municipio":"0c994184-8850-43d5-a2e5-27d1dfa63e95","title":"SP - CANDIDO MOTA","name":"SP - CANDIDO MOTA","tipo":"Munic\u00edpio","url":"\/dashboard\/details-assets\/0c994184-8850-43d5-a2e5-27d1dfa63e95"},"geometry":{"type":"Point","coordinates":[-50.388393,-22.746925]}},{"type":"Feature","properties":{"municipio":"38181cc1-1b7d-46f7-a0f0-17a466b60593","title":"SP - CAMPOS DO JORDAO","name":"SP - CAMPOS DO JORDAO","tipo":"Munic\u00edpio","url":"\/dashboard\/details-assets\/38181cc1-1b7d-46f7-a0f0-17a466b60593"},"geometry":{"type":"Point","coordinates":[-45.589202,-22.740092]}},{"type":"Feature","properties":{"municipio":"d5b13088-1857-42e1-be91-30b923395f0e","title":"SP - CAMPO LIMPO PAULISTA","name":"SP - CAMPO LIMPO PAULISTA","tipo":"Munic\u00edpio","url":"\/dashboard\/details-assets\/d5b13088-1857-42e1-be91-30b923395f0e"},"geometry":{"type":"Point","coordinates":[-46.789369,-23.208293]}},{"type":"Feature","properties":{"municipio":"253169df-c9ab-487e-b2ea-b5da34c84d26","title":"SP - CAMPINAS","name":"SP - CAMPINAS","tipo":"Munic\u00edpio","url":"\/dashboard\/details-assets\/253169df-c9ab-487e-b2ea-b5da34c84d26"},"geometry":{"type":"Point","coordinates":[-47.060156,-22.907342]}},{"type":"Feature","properties":{"municipio":"b006925d-694f-42dc-b6da-b7b0ee0e61ae","title":"SP - CAJURU","name":"SP - CAJURU","tipo":"Munic\u00edpio","url":"\/dashboard\/details-assets\/b006925d-694f-42dc-b6da-b7b0ee0e61ae"},"geometry":{"type":"Point","coordinates":[-47.303467,-21.275414]}},{"type":"Feature","properties":{"municipio":"1de7314e-7581-4cd2-9223-6f0c83a26e30","title":"SP - CAJATI","name":"SP - CAJATI","tipo":"Munic\u00edpio","url":"\/dashboard\/details-assets\/1de7314e-7581-4cd2-9223-6f0c83a26e30"},"geometry":{"type":"Point","coordinates":[-48.105,-24.726361]}},{"type":"Feature","properties":{"municipio":"7d83cbea-d201-4a66-9022-e6a44fd95722","title":"SP - CAJAMAR","name":"SP - CAJAMAR","tipo":"Munic\u00edpio","url":"\/dashboard\/details-assets\/7d83cbea-d201-4a66-9022-e6a44fd95722"},"geometry":{"type":"Point","coordinates":[-46.88292,-23.360971]}},{"type":"Feature","properties":{"municipio":"75607bfd-95d6-4dc4-b808-9e548196d63a","title":"SP - CAIEIRAS","name":"SP - CAIEIRAS","tipo":"Munic\u00edpio","url":"\/dashboard\/details-assets\/75607bfd-95d6-4dc4-b808-9e548196d63a"},"geometry":{"type":"Point","coordinates":[-46.744101,-23.362116]}},{"type":"Feature","properties":{"municipio":"141701e4-9c9b-4569-a5f7-603e06deaea4","title":"SP - CACHOEIRA PAULISTA","name":"SP - CACHOEIRA PAULISTA","tipo":"Munic\u00edpio","url":"\/dashboard\/details-assets\/141701e4-9c9b-4569-a5f7-603e06deaea4"},"geometry":{"type":"Point","coordinates":[-45.01063,-22.664754]}},{"type":"Feature","properties":{"municipio":"0b0ef8ae-2e3b-4db1-bd4f-54b7d450f7d9","title":"SP - CACAPAVA","name":"SP - CACAPAVA","tipo":"Munic\u00edpio","url":"\/dashboard\/details-assets\/0b0ef8ae-2e3b-4db1-bd4f-54b7d450f7d9"},"geometry":{"type":"Point","coordinates":[-45.70773,-23.100664]}},{"type":"Feature","properties":{"municipio":"96fb9d87-9147-4243-b1dc-3ef655d36f3c","title":"SP - CABREUVA","name":"SP - CABREUVA","tipo":"Munic\u00edpio","url":"\/dashboard\/details-assets\/96fb9d87-9147-4243-b1dc-3ef655d36f3c"},"geometry":{"type":"Point","coordinates":[-47.133658,-23.312674]}},{"type":"Feature","properties":{"municipio":"09c44936-b85a-4757-bf99-d4d91c5c4f64","title":"SP - BRAGANCA PAULISTA","name":"SP - BRAGANCA PAULISTA","tipo":"Munic\u00edpio","url":"\/dashboard\/details-assets\/09c44936-b85a-4757-bf99-d4d91c5c4f64"},"geometry":{"type":"Point","coordinates":[-46.542333,-22.956895]}},{"type":"Feature","properties":{"municipio":"3710878a-ae2c-4e44-816a-7d1e97630ddb","title":"SP - BOTUCATU","name":"SP - BOTUCATU","tipo":"Munic\u00edpio","url":"\/dashboard\/details-assets\/3710878a-ae2c-4e44-816a-7d1e97630ddb"},"geometry":{"type":"Point","coordinates":[-48.441289,-22.888381]}},{"type":"Feature","properties":{"municipio":"5bc3456d-2815-40f1-b629-796c25979409","title":"SP - BOITUVA","name":"SP - BOITUVA","tipo":"Munic\u00edpio","url":"\/dashboard\/details-assets\/5bc3456d-2815-40f1-b629-796c25979409"},"geometry":{"type":"Point","coordinates":[-47.671473,-23.281944]}},{"type":"Feature","properties":{"municipio":"9ffec7fc-3fc1-431e-80ce-7b2f6915e569","title":"SP - BERTIOGA","name":"SP - BERTIOGA","tipo":"Munic\u00edpio","url":"\/dashboard\/details-assets\/9ffec7fc-3fc1-431e-80ce-7b2f6915e569"},"geometry":{"type":"Point","coordinates":[-46.136538,-23.854014]}},{"type":"Feature","properties":{"municipio":"b904f782-ae8e-4c58-9789-62d611ce87bc","title":"SP - BIRIGUI","name":"SP - BIRIGUI","tipo":"Munic\u00edpio","url":"\/dashboard\/details-assets\/b904f782-ae8e-4c58-9789-62d611ce87bc"},"geometry":{"type":"Point","coordinates":[-50.339329,-21.292392]}},{"type":"Feature","properties":{"municipio":"94e72dde-cae2-47a5-9626-4e8aa9271805","title":"SP - BEBEDOURO","name":"SP - BEBEDOURO","tipo":"Munic\u00edpio","url":"\/dashboard\/details-assets\/94e72dde-cae2-47a5-9626-4e8aa9271805"},"geometry":{"type":"Point","coordinates":[-48.477362,-20.949816]}},{"type":"Feature","properties":{"municipio":"8f627b2b-958e-430f-99a4-4a1b6c2cbcf4","title":"SP - BAURU","name":"SP - BAURU","tipo":"Munic\u00edpio","url":"\/dashboard\/details-assets\/8f627b2b-958e-430f-99a4-4a1b6c2cbcf4"},"geometry":{"type":"Point","coordinates":[-49.083001,-22.325122]}},{"type":"Feature","properties":{"municipio":"b1bd8039-130a-4207-8674-055bca7f074f","title":"SP - BATATAIS","name":"SP - BATATAIS","tipo":"Munic\u00edpio","url":"\/dashboard\/details-assets\/b1bd8039-130a-4207-8674-055bca7f074f"},"geometry":{"type":"Point","coordinates":[-47.586107,-20.891929]}},{"type":"Feature","properties":{"municipio":"ccb17b85-efa1-4df0-9d54-5de7bace3db3","title":"SP - BARUERI","name":"SP - BARUERI","tipo":"Munic\u00edpio","url":"\/dashboard\/details-assets\/ccb17b85-efa1-4df0-9d54-5de7bace3db3"},"geometry":{"type":"Point","coordinates":[-46.874653,-23.508902]}},{"type":"Feature","properties":{"municipio":"eb34d14d-9ec8-47b9-82b2-2a8732909f2c","title":"SP - BARRETOS","name":"SP - BARRETOS","tipo":"Munic\u00edpio","url":"\/dashboard\/details-assets\/eb34d14d-9ec8-47b9-82b2-2a8732909f2c"},"geometry":{"type":"Point","coordinates":[-48.567378,-20.558456]}},{"type":"Feature","properties":{"municipio":"fcb18f79-5a0c-4764-99e0-a07ca3eac4f8","title":"SP - BARRINHA","name":"SP - BARRINHA","tipo":"Munic\u00edpio","url":"\/dashboard\/details-assets\/fcb18f79-5a0c-4764-99e0-a07ca3eac4f8"},"geometry":{"type":"Point","coordinates":[-48.162814,-21.191743]}},{"type":"Feature","properties":{"municipio":"259109e3-c1b3-4491-9f75-178a4600bbfa","title":"SP - BARRA DO TURVO","name":"SP - BARRA DO TURVO","tipo":"Munic\u00edpio","url":"\/dashboard\/details-assets\/259109e3-c1b3-4491-9f75-178a4600bbfa"},"geometry":{"type":"Point","coordinates":[-48.545153,-24.876025]}},{"type":"Feature","properties":{"municipio":"c49597fa-1f15-4bf5-aaaf-50d02dac3ad3","title":"SP - BARRA BONITA","name":"SP - BARRA BONITA","tipo":"Munic\u00edpio","url":"\/dashboard\/details-assets\/c49597fa-1f15-4bf5-aaaf-50d02dac3ad3"},"geometry":{"type":"Point","coordinates":[-48.552414,-22.490671]}},{"type":"Feature","properties":{"municipio":"4474b072-529e-467c-973f-4d4cd91e2f8d","title":"SP - AVARE","name":"SP - AVARE","tipo":"Munic\u00edpio","url":"\/dashboard\/details-assets\/4474b072-529e-467c-973f-4d4cd91e2f8d"},"geometry":{"type":"Point","coordinates":[-48.923263,-23.103193]}},{"type":"Feature","properties":{"municipio":"7369d66b-452c-4f7d-836e-c51f463b8428","title":"SP - AURIFLAMA","name":"SP - AURIFLAMA","tipo":"Munic\u00edpio","url":"\/dashboard\/details-assets\/7369d66b-452c-4f7d-836e-c51f463b8428"},"geometry":{"type":"Point","coordinates":[-50.553959,-20.687335]}},{"type":"Feature","properties":{"municipio":"eacf99c2-79f6-428b-877e-613d9d6c4abc","title":"SP - ATIBAIA","name":"SP - ATIBAIA","tipo":"Munic\u00edpio","url":"\/dashboard\/details-assets\/eacf99c2-79f6-428b-877e-613d9d6c4abc"},"geometry":{"type":"Point","coordinates":[-46.555063,-23.116308]}},{"type":"Feature","properties":{"municipio":"8584adfd-e2a6-4015-929a-dcc8e3057378","title":"SP - ASSIS","name":"SP - ASSIS","tipo":"Munic\u00edpio","url":"\/dashboard\/details-assets\/8584adfd-e2a6-4015-929a-dcc8e3057378"},"geometry":{"type":"Point","coordinates":[-50.41751,-22.662835]}},{"type":"Feature","properties":{"municipio":"9b5f74c2-4d0e-4d0e-885b-5886a0f6be15","title":"SP - ARUJA","name":"SP - ARUJA","tipo":"Munic\u00edpio","url":"\/dashboard\/details-assets\/9b5f74c2-4d0e-4d0e-885b-5886a0f6be15"},"geometry":{"type":"Point","coordinates":[-46.32049,-23.395827]}},{"type":"Feature","properties":{"municipio":"54aae259-af9f-4a98-9a82-9d1cc91ccf6d","title":"SP - ARTUR NOGUEIRA","name":"SP - ARTUR NOGUEIRA","tipo":"Munic\u00edpio","url":"\/dashboard\/details-assets\/54aae259-af9f-4a98-9a82-9d1cc91ccf6d"},"geometry":{"type":"Point","coordinates":[-47.164301,-22.571343]}},{"type":"Feature","properties":{"municipio":"cf022c2d-9322-430f-a396-407559e00db4","title":"SP - ARARAS","name":"SP - ARARAS","tipo":"Munic\u00edpio","url":"\/dashboard\/details-assets\/cf022c2d-9322-430f-a396-407559e00db4"},"geometry":{"type":"Point","coordinates":[-47.38583,-22.357087]}},{"type":"Feature","properties":{"municipio":"99e0a943-8008-440c-b0a2-29113d6167d9","title":"SP - ARARAQUARA","name":"SP - ARARAQUARA","tipo":"Munic\u00edpio","url":"\/dashboard\/details-assets\/99e0a943-8008-440c-b0a2-29113d6167d9"},"geometry":{"type":"Point","coordinates":[-48.17444,-21.790359]}},{"type":"Feature","properties":{"municipio":"4dc053e5-b34c-4899-bf89-bcd6f6dcb5e4","title":"SP - ARACOIABA DA SERRA","name":"SP - ARACOIABA DA SERRA","tipo":"Munic\u00edpio","url":"\/dashboard\/details-assets\/4dc053e5-b34c-4899-bf89-bcd6f6dcb5e4"},"geometry":{"type":"Point","coordinates":[-47.587243,-23.50732]}},{"type":"Feature","properties":{"municipio":"2f62f3ea-86b7-4a40-9dad-8921275b23c2","title":"SP - ARACATUBA","name":"SP - ARACATUBA","tipo":"Munic\u00edpio","url":"\/dashboard\/details-assets\/2f62f3ea-86b7-4a40-9dad-8921275b23c2"},"geometry":{"type":"Point","coordinates":[-50.439226,-21.205476]}},{"type":"Feature","properties":{"municipio":"c36f69db-8906-4168-a9f6-fc2fac536855","title":"SP - APIAI","name":"SP - APIAI","tipo":"Munic\u00edpio","url":"\/dashboard\/details-assets\/c36f69db-8906-4168-a9f6-fc2fac536855"},"geometry":{"type":"Point","coordinates":[-48.84866,-24.513316]}},{"type":"Feature","properties":{"municipio":"7fe14c94-9aa2-4953-b486-f32f48c6d046","title":"SP - ANDRADINA","name":"SP - ANDRADINA","tipo":"Munic\u00edpio","url":"\/dashboard\/details-assets\/7fe14c94-9aa2-4953-b486-f32f48c6d046"},"geometry":{"type":"Point","coordinates":[-51.378848,-20.901464]}},{"type":"Feature","properties":{"municipio":"c180229d-a97c-493c-9c9c-aa979b3d75ea","title":"SP - APARECIDA","name":"SP - APARECIDA","tipo":"Munic\u00edpio","url":"\/dashboard\/details-assets\/c180229d-a97c-493c-9c9c-aa979b3d75ea"},"geometry":{"type":"Point","coordinates":[-45.229429,-22.848154]}},{"type":"Feature","properties":{"municipio":"08f5d4ac-306d-4bb5-b485-be087e24f908","title":"SP - AMPARO","name":"SP - AMPARO","tipo":"Munic\u00edpio","url":"\/dashboard\/details-assets\/08f5d4ac-306d-4bb5-b485-be087e24f908"},"geometry":{"type":"Point","coordinates":[-46.765086,-22.699389]}},{"type":"Feature","properties":{"municipio":"34cc7a45-76f2-426e-a39b-b247b05602de","title":"SP - AMERICANA","name":"SP - AMERICANA","tipo":"Munic\u00edpio","url":"\/dashboard\/details-assets\/34cc7a45-76f2-426e-a39b-b247b05602de"},"geometry":{"type":"Point","coordinates":[-47.330363,-22.740883]}},{"type":"Feature","properties":{"municipio":"a7475783-88f2-4c1f-ad65-b2ab5d156fa8","title":"SP - AGUDOS","name":"SP - AGUDOS","tipo":"Munic\u00edpio","url":"\/dashboard\/details-assets\/a7475783-88f2-4c1f-ad65-b2ab5d156fa8"},"geometry":{"type":"Point","coordinates":[-48.990156,-22.474037]}},{"type":"Feature","properties":{"municipio":"7bfcb863-b43f-433f-84af-a980f0711eb5","title":"SP - ADAMANTINA","name":"SP - ADAMANTINA","tipo":"Munic\u00edpio","url":"\/dashboard\/details-assets\/7bfcb863-b43f-433f-84af-a980f0711eb5"},"geometry":{"type":"Point","coordinates":[-51.102504,-21.685058]}},{"type":"Feature","properties":{"municipio":"7f2b0732-3290-48ee-a283-cda479a0e458","title":"SE - TOBIAS BARRETO","name":"SE - TOBIAS BARRETO","tipo":"Munic\u00edpio","url":"\/dashboard\/details-assets\/7f2b0732-3290-48ee-a283-cda479a0e458"},"geometry":{"type":"Point","coordinates":[-38.000521,-11.185188]}},{"type":"Feature","properties":{"municipio":"131f0583-63a2-4f28-a22f-10af0683451b","title":"SE - UMBAUBA","name":"SE - UMBAUBA","tipo":"Munic\u00edpio","url":"\/dashboard\/details-assets\/131f0583-63a2-4f28-a22f-10af0683451b"},"geometry":{"type":"Point","coordinates":[-37.659948,-11.416068]}},{"type":"Feature","properties":{"municipio":"65f8588a-4e0d-4c5f-9207-97e1794b2d82","title":"SE - SIMAO DIAS","name":"SE - SIMAO DIAS","tipo":"Munic\u00edpio","url":"\/dashboard\/details-assets\/65f8588a-4e0d-4c5f-9207-97e1794b2d82"},"geometry":{"type":"Point","coordinates":[-37.809338,-10.739792]}},{"type":"Feature","properties":{"municipio":"f81f7d7d-755b-4007-b556-f2155cbed8c7","title":"SE - SAO CRISTOVAO","name":"SE - SAO CRISTOVAO","tipo":"Munic\u00edpio","url":"\/dashboard\/details-assets\/f81f7d7d-755b-4007-b556-f2155cbed8c7"},"geometry":{"type":"Point","coordinates":[-37.205934,-11.012236]}},{"type":"Feature","properties":{"municipio":"b568511c-d9d5-4dd0-8029-544cf6780052","title":"SE - RIACHUELO","name":"SE - RIACHUELO","tipo":"Munic\u00edpio","url":"\/dashboard\/details-assets\/b568511c-d9d5-4dd0-8029-544cf6780052"},"geometry":{"type":"Point","coordinates":[-37.187039,-10.732649]}},{"type":"Feature","properties":{"municipio":"c053e8b4-d504-4482-9820-429c52851f14","title":"SE - PROPRIA","name":"SE - PROPRIA","tipo":"Munic\u00edpio","url":"\/dashboard\/details-assets\/c053e8b4-d504-4482-9820-429c52851f14"},"geometry":{"type":"Point","coordinates":[-36.837185,-10.212228]}},{"type":"Feature","properties":{"municipio":"93dc8849-d6fb-40dd-9cfc-a30b18d74b17","title":"SE - POCO VERDE","name":"SE - POCO VERDE","tipo":"Munic\u00edpio","url":"\/dashboard\/details-assets\/93dc8849-d6fb-40dd-9cfc-a30b18d74b17"},"geometry":{"type":"Point","coordinates":[-38.173065,-10.717071]}},{"type":"Feature","properties":{"municipio":"e5221a98-556f-4f66-b5a9-b15a7d9e7eb1","title":"SE - PORTO DA FOLHA","name":"SE - PORTO DA FOLHA","tipo":"Munic\u00edpio","url":"\/dashboard\/details-assets\/e5221a98-556f-4f66-b5a9-b15a7d9e7eb1"},"geometry":{"type":"Point","coordinates":[-37.275759,-9.919741]}},{"type":"Feature","properties":{"municipio":"e211a420-08b6-4ed2-9ad9-3fd0786f72b7","title":"SE - NOSSA SENHORA DO SOCORRO","name":"SE - NOSSA SENHORA DO SOCORRO","tipo":"Munic\u00edpio","url":"\/dashboard\/details-assets\/e211a420-08b6-4ed2-9ad9-3fd0786f72b7"},"geometry":{"type":"Point","coordinates":[-37.126979,-10.853164]}},{"type":"Feature","properties":{"municipio":"fb0aef03-c328-420a-9f2e-00c3a403b674","title":"SE - POCO REDONDO","name":"SE - POCO REDONDO","tipo":"Munic\u00edpio","url":"\/dashboard\/details-assets\/fb0aef03-c328-420a-9f2e-00c3a403b674"},"geometry":{"type":"Point","coordinates":[-37.723768,-9.822267]}},{"type":"Feature","properties":{"municipio":"93d69cab-4c77-4658-81e6-9f8df00c8a41","title":"SE - NOSSA SENHORA DAS DORES","name":"SE - NOSSA SENHORA DAS DORES","tipo":"Munic\u00edpio","url":"\/dashboard\/details-assets\/93d69cab-4c77-4658-81e6-9f8df00c8a41"},"geometry":{"type":"Point","coordinates":[-37.196622,-10.485792]}},{"type":"Feature","properties":{"municipio":"849df969-23a8-45dd-9340-d2bad5d64bd9","title":"SE - NOSSA SENHORA DA GLORIA","name":"SE - NOSSA SENHORA DA GLORIA","tipo":"Munic\u00edpio","url":"\/dashboard\/details-assets\/849df969-23a8-45dd-9340-d2bad5d64bd9"},"geometry":{"type":"Point","coordinates":[-37.421281,-10.215655]}},{"type":"Feature","properties":{"municipio":"026ea0a0-d6a1-4a6a-b290-f385dd3adf64","title":"SE - NOSSA SENHORA APARECIDA","name":"SE - NOSSA SENHORA APARECIDA","tipo":"Munic\u00edpio","url":"\/dashboard\/details-assets\/026ea0a0-d6a1-4a6a-b290-f385dd3adf64"},"geometry":{"type":"Point","coordinates":[-37.454432,-10.397443]}},{"type":"Feature","properties":{"municipio":"53861f9d-2e3f-4fad-8283-d106a941e835","title":"SE - NEOPOLIS","name":"SE - NEOPOLIS","tipo":"Munic\u00edpio","url":"\/dashboard\/details-assets\/53861f9d-2e3f-4fad-8283-d106a941e835"},"geometry":{"type":"Point","coordinates":[-36.585281,-10.321944]}},{"type":"Feature","properties":{"municipio":"d03b167e-1a57-4d41-8d72-9186e5148fb7","title":"SE - MONTE ALEGRE DE SERGIPE","name":"SE - MONTE ALEGRE DE SERGIPE","tipo":"Munic\u00edpio","url":"\/dashboard\/details-assets\/d03b167e-1a57-4d41-8d72-9186e5148fb7"},"geometry":{"type":"Point","coordinates":[-37.561432,-10.028255]}},{"type":"Feature","properties":{"municipio":"4022e62e-9fa5-491b-b870-efb06ecb638a","title":"SE - MARUIM","name":"SE - MARUIM","tipo":"Munic\u00edpio","url":"\/dashboard\/details-assets\/4022e62e-9fa5-491b-b870-efb06ecb638a"},"geometry":{"type":"Point","coordinates":[-37.085935,-10.731196]}},{"type":"Feature","properties":{"municipio":"09f185d3-202c-4cf2-8a51-5eb92b9c2b0f","title":"SE - LARANJEIRAS","name":"SE - LARANJEIRAS","tipo":"Munic\u00edpio","url":"\/dashboard\/details-assets\/09f185d3-202c-4cf2-8a51-5eb92b9c2b0f"},"geometry":{"type":"Point","coordinates":[-37.167937,-10.804856]}},{"type":"Feature","properties":{"municipio":"37596719-6590-46fd-b830-69fac9f606f4","title":"SE - LAGARTO","name":"SE - LAGARTO","tipo":"Munic\u00edpio","url":"\/dashboard\/details-assets\/37596719-6590-46fd-b830-69fac9f606f4"},"geometry":{"type":"Point","coordinates":[-37.666353,-10.915301]}},{"type":"Feature","properties":{"municipio":"f2d648b4-8282-47e7-8cce-c1dc8d65a409","title":"SE - JAPARATUBA","name":"SE - JAPARATUBA","tipo":"Munic\u00edpio","url":"\/dashboard\/details-assets\/f2d648b4-8282-47e7-8cce-c1dc8d65a409"},"geometry":{"type":"Point","coordinates":[-36.942008,-10.577323]}},{"type":"Feature","properties":{"municipio":"c40e5e07-70e3-487b-a75c-e24f8a8ef309","title":"SE - ITAPORANGA DAJUDA","name":"SE - ITAPORANGA DAJUDA","tipo":"Munic\u00edpio","url":"\/dashboard\/details-assets\/c40e5e07-70e3-487b-a75c-e24f8a8ef309"},"geometry":{"type":"Point","coordinates":[-37.307827,-10.996733]}},{"type":"Feature","properties":{"municipio":"b51dbd67-cdb2-40f2-a8f4-08acaf0943e5","title":"SE - ITABAIANINHA","name":"SE - ITABAIANINHA","tipo":"Munic\u00edpio","url":"\/dashboard\/details-assets\/b51dbd67-cdb2-40f2-a8f4-08acaf0943e5"},"geometry":{"type":"Point","coordinates":[-37.787411,-11.276785]}},{"type":"Feature","properties":{"municipio":"65bb4be7-ad2b-4122-8185-b79fba1b7b53","title":"SE - ITABAIANA","name":"SE - ITABAIANA","tipo":"Munic\u00edpio","url":"\/dashboard\/details-assets\/65bb4be7-ad2b-4122-8185-b79fba1b7b53"},"geometry":{"type":"Point","coordinates":[-37.426861,-10.685716]}},{"type":"Feature","properties":{"municipio":"b1d5810e-eb2e-468d-a54c-10938141e612","title":"SE - INDIAROBA","name":"SE - INDIAROBA","tipo":"Munic\u00edpio","url":"\/dashboard\/details-assets\/b1d5810e-eb2e-468d-a54c-10938141e612"},"geometry":{"type":"Point","coordinates":[-37.515095,-11.518507]}},{"type":"Feature","properties":{"municipio":"9164b09a-369e-4cf7-95b3-d2554486df4e","title":"SE - ESTANCIA","name":"SE - ESTANCIA","tipo":"Munic\u00edpio","url":"\/dashboard\/details-assets\/9164b09a-369e-4cf7-95b3-d2554486df4e"},"geometry":{"type":"Point","coordinates":[-37.440011,-11.267949]}},{"type":"Feature","properties":{"municipio":"c63373be-1929-42c1-9b91-5d15c033538d","title":"SE - GARARU","name":"SE - GARARU","tipo":"Munic\u00edpio","url":"\/dashboard\/details-assets\/c63373be-1929-42c1-9b91-5d15c033538d"},"geometry":{"type":"Point","coordinates":[-37.084372,-9.967351]}},{"type":"Feature","properties":{"municipio":"8f2bfdd0-b6b0-4fc9-a68a-f887c587e598","title":"SE - CARMOPOLIS","name":"SE - CARMOPOLIS","tipo":"Munic\u00edpio","url":"\/dashboard\/details-assets\/8f2bfdd0-b6b0-4fc9-a68a-f887c587e598"},"geometry":{"type":"Point","coordinates":[-36.989078,-10.645303]}},{"type":"Feature","properties":{"municipio":"d4b5bdc3-c690-475b-a4d9-fc9775d17c9c","title":"SE - CAPELA","name":"SE - CAPELA","tipo":"Munic\u00edpio","url":"\/dashboard\/details-assets\/d4b5bdc3-c690-475b-a4d9-fc9775d17c9c"},"geometry":{"type":"Point","coordinates":[-37.054833,-10.5061]}},{"type":"Feature","properties":{"municipio":"f685e3fb-30a7-4a6e-ae55-d0c209a265cf","title":"SE - CARIRA","name":"SE - CARIRA","tipo":"Munic\u00edpio","url":"\/dashboard\/details-assets\/f685e3fb-30a7-4a6e-ae55-d0c209a265cf"},"geometry":{"type":"Point","coordinates":[-37.701919,-10.358017]}},{"type":"Feature","properties":{"municipio":"b3257df7-f8c0-4080-9ebb-e8782d2f4d05","title":"SE - CANINDE DE SAO FRANCISCO","name":"SE - CANINDE DE SAO FRANCISCO","tipo":"Munic\u00edpio","url":"\/dashboard\/details-assets\/b3257df7-f8c0-4080-9ebb-e8782d2f4d05"},"geometry":{"type":"Point","coordinates":[-37.822052,-9.64847]}},{"type":"Feature","properties":{"municipio":"3a2ef481-73c3-4e5f-8e8e-224102b10dcc","title":"SE - BOQUIM","name":"SE - BOQUIM","tipo":"Munic\u00edpio","url":"\/dashboard\/details-assets\/3a2ef481-73c3-4e5f-8e8e-224102b10dcc"},"geometry":{"type":"Point","coordinates":[-37.623573,-11.146392]}},{"type":"Feature","properties":{"municipio":"46cf2b01-dee1-48ab-b8e5-4ef08cc5b191","title":"SE - CAMPO DO BRITO","name":"SE - CAMPO DO BRITO","tipo":"Munic\u00edpio","url":"\/dashboard\/details-assets\/46cf2b01-dee1-48ab-b8e5-4ef08cc5b191"},"geometry":{"type":"Point","coordinates":[-37.496356,-10.743335]}},{"type":"Feature","properties":{"municipio":"87729e78-46f7-47ca-a937-dcfed66907a1","title":"SE - AREIA BRANCA","name":"SE - AREIA BRANCA","tipo":"Munic\u00edpio","url":"\/dashboard\/details-assets\/87729e78-46f7-47ca-a937-dcfed66907a1"},"geometry":{"type":"Point","coordinates":[-37.324314,-10.776843]}},{"type":"Feature","properties":{"municipio":"3ff8d3a3-059a-4c28-a74b-6febf9e62367","title":"SE - ARACAJU","name":"SE - ARACAJU","tipo":"Munic\u00edpio","url":"\/dashboard\/details-assets\/3ff8d3a3-059a-4c28-a74b-6febf9e62367"},"geometry":{"type":"Point","coordinates":[-37.073082,-10.947247]}},{"type":"Feature","properties":{"municipio":"7a7e1998-b893-4ceb-a1c1-ddc4302a427a","title":"SC - XAXIM","name":"SC - XAXIM","tipo":"Munic\u00edpio","url":"\/dashboard\/details-assets\/7a7e1998-b893-4ceb-a1c1-ddc4302a427a"},"geometry":{"type":"Point","coordinates":[-52.534933,-26.963719]}},{"type":"Feature","properties":{"municipio":"a5043256-35a7-4111-b7c6-ab4cb2cdc51f","title":"SC - XANXERE","name":"SC - XANXERE","tipo":"Munic\u00edpio","url":"\/dashboard\/details-assets\/a5043256-35a7-4111-b7c6-ab4cb2cdc51f"},"geometry":{"type":"Point","coordinates":[-52.404667,-26.874584]}},{"type":"Feature","properties":{"municipio":"e5af6825-4ce7-47e7-a6f4-39bbfdfdba3d","title":"SC - VIDEIRA","name":"SC - VIDEIRA","tipo":"Munic\u00edpio","url":"\/dashboard\/details-assets\/e5af6825-4ce7-47e7-a6f4-39bbfdfdba3d"},"geometry":{"type":"Point","coordinates":[-51.151705,-27.006129]}},{"type":"Feature","properties":{"municipio":"e41a2eaf-8ad0-48c8-b821-25461b30deda","title":"SC - TIMBO","name":"SC - TIMBO","tipo":"Munic\u00edpio","url":"\/dashboard\/details-assets\/e41a2eaf-8ad0-48c8-b821-25461b30deda"},"geometry":{"type":"Point","coordinates":[-49.277712,-26.822903]}},{"type":"Feature","properties":{"municipio":"4a54464f-58da-4c06-b545-01b6aa0c65bd","title":"SC - TUBARAO","name":"SC - TUBARAO","tipo":"Munic\u00edpio","url":"\/dashboard\/details-assets\/4a54464f-58da-4c06-b545-01b6aa0c65bd"},"geometry":{"type":"Point","coordinates":[-49.005268,-28.480034]}},{"type":"Feature","properties":{"municipio":"4de124ac-ea59-4820-b04a-a16cc4622211","title":"SC - TIJUCAS","name":"SC - TIJUCAS","tipo":"Munic\u00edpio","url":"\/dashboard\/details-assets\/4de124ac-ea59-4820-b04a-a16cc4622211"},"geometry":{"type":"Point","coordinates":[-48.632071,-27.239454]}},{"type":"Feature","properties":{"municipio":"8fcf4ced-e501-4086-a58b-357799ed1b98","title":"SC - TAIO","name":"SC - TAIO","tipo":"Munic\u00edpio","url":"\/dashboard\/details-assets\/8fcf4ced-e501-4086-a58b-357799ed1b98"},"geometry":{"type":"Point","coordinates":[-50.005096,-27.117937]}},{"type":"Feature","properties":{"municipio":"e739b443-9a07-4eac-a53c-412a875991aa","title":"SC - SOMBRIO","name":"SC - SOMBRIO","tipo":"Munic\u00edpio","url":"\/dashboard\/details-assets\/e739b443-9a07-4eac-a53c-412a875991aa"},"geometry":{"type":"Point","coordinates":[-49.63421,-29.109133]}},{"type":"Feature","properties":{"municipio":"8a18689a-e6b1-42cd-ad06-cc6e5aa9a57b","title":"SC - SEARA","name":"SC - SEARA","tipo":"Munic\u00edpio","url":"\/dashboard\/details-assets\/8a18689a-e6b1-42cd-ad06-cc6e5aa9a57b"},"geometry":{"type":"Point","coordinates":[-52.307093,-27.14266]}},{"type":"Feature","properties":{"municipio":"09c40d61-3c6d-44c8-8ab8-59758eaa6a7a","title":"SC - SAO MIGUEL DO OESTE","name":"SC - SAO MIGUEL DO OESTE","tipo":"Munic\u00edpio","url":"\/dashboard\/details-assets\/09c40d61-3c6d-44c8-8ab8-59758eaa6a7a"},"geometry":{"type":"Point","coordinates":[-53.518839,-26.726427]}},{"type":"Feature","properties":{"municipio":"9dcc1e62-f002-458b-9ae2-ddddca8c03bd","title":"SC - SAO LOURENCO DO OESTE","name":"SC - SAO LOURENCO DO OESTE","tipo":"Munic\u00edpio","url":"\/dashboard\/details-assets\/9dcc1e62-f002-458b-9ae2-ddddca8c03bd"},"geometry":{"type":"Point","coordinates":[-52.852705,-26.354526]}},{"type":"Feature","properties":{"municipio":"677e6d20-3e66-4d93-8466-582cf0891fd9","title":"SC - SAO JOSE","name":"SC - SAO JOSE","tipo":"Munic\u00edpio","url":"\/dashboard\/details-assets\/677e6d20-3e66-4d93-8466-582cf0891fd9"},"geometry":{"type":"Point","coordinates":[-48.642802,-27.610088]}},{"type":"Feature","properties":{"municipio":"bb930751-1272-4acc-a703-3ab49b4d0958","title":"SC - SAO JOAQUIM","name":"SC - SAO JOAQUIM","tipo":"Munic\u00edpio","url":"\/dashboard\/details-assets\/bb930751-1272-4acc-a703-3ab49b4d0958"},"geometry":{"type":"Point","coordinates":[-49.937587,-28.292455]}},{"type":"Feature","properties":{"municipio":"ed2626ab-a796-4baa-8ad3-430282e69c7d","title":"SC - SAO FRANCISCO DO SUL","name":"SC - SAO FRANCISCO DO SUL","tipo":"Munic\u00edpio","url":"\/dashboard\/details-assets\/ed2626ab-a796-4baa-8ad3-430282e69c7d"},"geometry":{"type":"Point","coordinates":[-48.637571,-26.244018]}},{"type":"Feature","properties":{"municipio":"ce7e389a-be03-4153-b8d3-8553107e7356","title":"SC - SAO BENTO DO SUL","name":"SC - SAO BENTO DO SUL","tipo":"Munic\u00edpio","url":"\/dashboard\/details-assets\/ce7e389a-be03-4153-b8d3-8553107e7356"},"geometry":{"type":"Point","coordinates":[-49.383557,-26.250037]}},{"type":"Feature","properties":{"municipio":"e39f0a86-5973-477c-8d37-90a443d0123a","title":"SC - RIO DO SUL","name":"SC - RIO DO SUL","tipo":"Munic\u00edpio","url":"\/dashboard\/details-assets\/e39f0a86-5973-477c-8d37-90a443d0123a"},"geometry":{"type":"Point","coordinates":[-49.643238,-27.217903]}},{"type":"Feature","properties":{"municipio":"f7209475-6ad2-469e-bdf5-22a4f5705602","title":"SC - RIO NEGRINHO","name":"SC - RIO NEGRINHO","tipo":"Munic\u00edpio","url":"\/dashboard\/details-assets\/f7209475-6ad2-469e-bdf5-22a4f5705602"},"geometry":{"type":"Point","coordinates":[-49.517295,-26.255325]}},{"type":"Feature","properties":{"municipio":"fbe04a29-8ff4-4a69-9733-5d36c7fe4e00","title":"SC - QUILOMBO","name":"SC - QUILOMBO","tipo":"Munic\u00edpio","url":"\/dashboard\/details-assets\/fbe04a29-8ff4-4a69-9733-5d36c7fe4e00"},"geometry":{"type":"Point","coordinates":[-52.72761,-26.740056]}},{"type":"Feature","properties":{"municipio":"d93d746f-8150-4b9b-bd0d-1a19b4328b96","title":"SC - PORTO UNIAO","name":"SC - PORTO UNIAO","tipo":"Munic\u00edpio","url":"\/dashboard\/details-assets\/d93d746f-8150-4b9b-bd0d-1a19b4328b96"},"geometry":{"type":"Point","coordinates":[-51.08171,-26.238912]}},{"type":"Feature","properties":{"municipio":"8f9da648-a4c6-42ee-a758-a89b3cea56b0","title":"SC - PALHOCA","name":"SC - PALHOCA","tipo":"Munic\u00edpio","url":"\/dashboard\/details-assets\/8f9da648-a4c6-42ee-a758-a89b3cea56b0"},"geometry":{"type":"Point","coordinates":[-48.670288,-27.647044]}},{"type":"Feature","properties":{"municipio":"080f2495-a005-43bc-b071-9a352ad9f0d8","title":"SC - PALMITOS","name":"SC - PALMITOS","tipo":"Munic\u00edpio","url":"\/dashboard\/details-assets\/080f2495-a005-43bc-b071-9a352ad9f0d8"},"geometry":{"type":"Point","coordinates":[-53.159223,-27.071789]}},{"type":"Feature","properties":{"municipio":"440bdce0-c863-419d-bd37-66c3e9a93ac5","title":"SC - ORLEANS","name":"SC - ORLEANS","tipo":"Munic\u00edpio","url":"\/dashboard\/details-assets\/440bdce0-c863-419d-bd37-66c3e9a93ac5"},"geometry":{"type":"Point","coordinates":[-49.291426,-28.360469]}},{"type":"Feature","properties":{"municipio":"0cbe0bfe-6c75-4007-8821-c24d18ad90f6","title":"SC - MARAVILHA","name":"SC - MARAVILHA","tipo":"Munic\u00edpio","url":"\/dashboard\/details-assets\/0cbe0bfe-6c75-4007-8821-c24d18ad90f6"},"geometry":{"type":"Point","coordinates":[-53.174819,-26.761624]}},{"type":"Feature","properties":{"municipio":"32374e8a-02de-41c7-be60-7a8ecbf4557c","title":"SC - NAVEGANTES","name":"SC - NAVEGANTES","tipo":"Munic\u00edpio","url":"\/dashboard\/details-assets\/32374e8a-02de-41c7-be60-7a8ecbf4557c"},"geometry":{"type":"Point","coordinates":[-48.649183,-26.897439]}},{"type":"Feature","properties":{"municipio":"5e5b33c5-efdc-4dbf-ad6b-04819063d60f","title":"SC - MAFRA","name":"SC - MAFRA","tipo":"Munic\u00edpio","url":"\/dashboard\/details-assets\/5e5b33c5-efdc-4dbf-ad6b-04819063d60f"},"geometry":{"type":"Point","coordinates":[-49.801038,-26.115228]}},{"type":"Feature","properties":{"municipio":"9c41d793-0ae7-47ff-81fa-6c5e28f6725b","title":"SC - LAGES","name":"SC - LAGES","tipo":"Munic\u00edpio","url":"\/dashboard\/details-assets\/9c41d793-0ae7-47ff-81fa-6c5e28f6725b"},"geometry":{"type":"Point","coordinates":[-50.330222,-27.817259]}},{"type":"Feature","properties":{"municipio":"b4ba055c-b817-44fe-a221-ab6986c9c1f1","title":"SC - LAGUNA","name":"SC - LAGUNA","tipo":"Munic\u00edpio","url":"\/dashboard\/details-assets\/b4ba055c-b817-44fe-a221-ab6986c9c1f1"},"geometry":{"type":"Point","coordinates":[-48.781389,-28.483586]}},{"type":"Feature","properties":{"municipio":"d4fe0250-dd03-4b11-8522-22f3fba2016f","title":"SC - JOINVILLE","name":"SC - JOINVILLE","tipo":"Munic\u00edpio","url":"\/dashboard\/details-assets\/d4fe0250-dd03-4b11-8522-22f3fba2016f"},"geometry":{"type":"Point","coordinates":[-48.849409,-26.304518]}},{"type":"Feature","properties":{"municipio":"5c3065f8-49bf-4d73-8162-aac20bd76f9a","title":"SC - JOACABA","name":"SC - JOACABA","tipo":"Munic\u00edpio","url":"\/dashboard\/details-assets\/5c3065f8-49bf-4d73-8162-aac20bd76f9a"},"geometry":{"type":"Point","coordinates":[-51.50669,-27.173945]}},{"type":"Feature","properties":{"municipio":"c06715af-3613-4a09-97f5-f55cdf2b176c","title":"SC - ITUPORANGA","name":"SC - ITUPORANGA","tipo":"Munic\u00edpio","url":"\/dashboard\/details-assets\/c06715af-3613-4a09-97f5-f55cdf2b176c"},"geometry":{"type":"Point","coordinates":[-49.603415,-27.414858]}},{"type":"Feature","properties":{"municipio":"3162a20b-85d3-44d5-8b78-5497403ea389","title":"SC - JARAGUA DO SUL","name":"SC - JARAGUA DO SUL","tipo":"Munic\u00edpio","url":"\/dashboard\/details-assets\/3162a20b-85d3-44d5-8b78-5497403ea389"},"geometry":{"type":"Point","coordinates":[-49.076299,-26.490484]}},{"type":"Feature","properties":{"municipio":"5340a953-98eb-4a7e-ba5d-612a54bb0285","title":"SC - ITAPIRANGA","name":"SC - ITAPIRANGA","tipo":"Munic\u00edpio","url":"\/dashboard\/details-assets\/5340a953-98eb-4a7e-ba5d-612a54bb0285"},"geometry":{"type":"Point","coordinates":[-53.714802,-27.175375]}},{"type":"Feature","properties":{"municipio":"1fb1e806-3fec-4fdb-831f-7c348ced8b08","title":"SC - ITAJAI","name":"SC - ITAJAI","tipo":"Munic\u00edpio","url":"\/dashboard\/details-assets\/1fb1e806-3fec-4fdb-831f-7c348ced8b08"},"geometry":{"type":"Point","coordinates":[-48.670913,-26.910705]}},{"type":"Feature","properties":{"municipio":"e83ea3b6-55f7-401e-99e4-c0ca543bd9f7","title":"SC - ITAPEMA","name":"SC - ITAPEMA","tipo":"Munic\u00edpio","url":"\/dashboard\/details-assets\/e83ea3b6-55f7-401e-99e4-c0ca543bd9f7"},"geometry":{"type":"Point","coordinates":[-48.617399,-27.095938]}},{"type":"Feature","properties":{"municipio":"aa9fc740-73c0-4045-9ff9-bd6e0d99a587","title":"SC - IMBITUBA","name":"SC - IMBITUBA","tipo":"Munic\u00edpio","url":"\/dashboard\/details-assets\/aa9fc740-73c0-4045-9ff9-bd6e0d99a587"},"geometry":{"type":"Point","coordinates":[-48.669284,-28.239951]}},{"type":"Feature","properties":{"municipio":"89ae49c5-09ca-4621-be9f-eff3ddfaf3e2","title":"SC - INDAIAL","name":"SC - INDAIAL","tipo":"Munic\u00edpio","url":"\/dashboard\/details-assets\/89ae49c5-09ca-4621-be9f-eff3ddfaf3e2"},"geometry":{"type":"Point","coordinates":[-49.24014,-26.906256]}},{"type":"Feature","properties":{"municipio":"15bd88ee-4540-4a20-910e-fc31f573ee9a","title":"SC - ICARA","name":"SC - ICARA","tipo":"Munic\u00edpio","url":"\/dashboard\/details-assets\/15bd88ee-4540-4a20-910e-fc31f573ee9a"},"geometry":{"type":"Point","coordinates":[-49.309144,-28.71371]}},{"type":"Feature","properties":{"municipio":"a004bf74-176d-4893-b1ff-c09a9e3f7b8e","title":"SC - GUARAMIRIM","name":"SC - GUARAMIRIM","tipo":"Munic\u00edpio","url":"\/dashboard\/details-assets\/a004bf74-176d-4893-b1ff-c09a9e3f7b8e"},"geometry":{"type":"Point","coordinates":[-48.992104,-26.474445]}},{"type":"Feature","properties":{"municipio":"025c7d06-0b4d-49aa-b33a-4c87b84eee99","title":"SC - GAROPABA","name":"SC - GAROPABA","tipo":"Munic\u00edpio","url":"\/dashboard\/details-assets\/025c7d06-0b4d-49aa-b33a-4c87b84eee99"},"geometry":{"type":"Point","coordinates":[-48.6355,-28.024935]}},{"type":"Feature","properties":{"municipio":"51f1c8cf-f313-4fa7-a8c5-38d63887a946","title":"SC - FRAIBURGO","name":"SC - FRAIBURGO","tipo":"Munic\u00edpio","url":"\/dashboard\/details-assets\/51f1c8cf-f313-4fa7-a8c5-38d63887a946"},"geometry":{"type":"Point","coordinates":[-50.925079,-27.023447]}},{"type":"Feature","properties":{"municipio":"c8c6afa2-bd63-4868-94d6-f5cbcbb1dc7c","title":"SC - FLORIANOPOLIS","name":"SC - FLORIANOPOLIS","tipo":"Munic\u00edpio","url":"\/dashboard\/details-assets\/c8c6afa2-bd63-4868-94d6-f5cbcbb1dc7c"},"geometry":{"type":"Point","coordinates":[-48.547637,-27.587796]}},{"type":"Feature","properties":{"municipio":"8d946c1c-c91f-47c4-b010-637cfab8f722","title":"SC - DIONISIO CERQUEIRA","name":"SC - DIONISIO CERQUEIRA","tipo":"Munic\u00edpio","url":"\/dashboard\/details-assets\/8d946c1c-c91f-47c4-b010-637cfab8f722"},"geometry":{"type":"Point","coordinates":[-53.631395,-26.266489]}},{"type":"Feature","properties":{"municipio":"e0464280-f52b-4ba7-98af-2d21fe4b6084","title":"SC - CURITIBANOS","name":"SC - CURITIBANOS","tipo":"Munic\u00edpio","url":"\/dashboard\/details-assets\/e0464280-f52b-4ba7-98af-2d21fe4b6084"},"geometry":{"type":"Point","coordinates":[-50.582601,-27.282983]}},{"type":"Feature","properties":{"municipio":"5e417a68-5235-4318-9bb4-a0767f3a7c25","title":"SC - CRICIUMA","name":"SC - CRICIUMA","tipo":"Munic\u00edpio","url":"\/dashboard\/details-assets\/5e417a68-5235-4318-9bb4-a0767f3a7c25"},"geometry":{"type":"Point","coordinates":[-49.36594,-28.673572]}},{"type":"Feature","properties":{"municipio":"9e81bca3-e62f-4864-bfa6-a0073d320be9","title":"SC - CONCORDIA","name":"SC - CONCORDIA","tipo":"Munic\u00edpio","url":"\/dashboard\/details-assets\/9e81bca3-e62f-4864-bfa6-a0073d320be9"},"geometry":{"type":"Point","coordinates":[-52.023971,-27.233659]}},{"type":"Feature","properties":{"municipio":"283896b4-d6d2-4e8b-a553-55159b455454","title":"SC - CHAPECO","name":"SC - CHAPECO","tipo":"Munic\u00edpio","url":"\/dashboard\/details-assets\/283896b4-d6d2-4e8b-a553-55159b455454"},"geometry":{"type":"Point","coordinates":[-52.615699,-27.100934]}},{"type":"Feature","properties":{"municipio":"732c3617-a055-4296-9b10-165734b7c7e2","title":"SC - CANOINHAS","name":"SC - CANOINHAS","tipo":"Munic\u00edpio","url":"\/dashboard\/details-assets\/732c3617-a055-4296-9b10-165734b7c7e2"},"geometry":{"type":"Point","coordinates":[-50.397849,-26.178807]}},{"type":"Feature","properties":{"municipio":"3e9ad19b-4136-4e47-b7b8-33b9a6026191","title":"SC - CAMPOS NOVOS","name":"SC - CAMPOS NOVOS","tipo":"Munic\u00edpio","url":"\/dashboard\/details-assets\/3e9ad19b-4136-4e47-b7b8-33b9a6026191"},"geometry":{"type":"Point","coordinates":[-51.223673,-27.399053]}},{"type":"Feature","properties":{"municipio":"fcaaa670-8dcc-4fa8-a918-a9f113d818ca","title":"SC - CAMBORIU","name":"SC - CAMBORIU","tipo":"Munic\u00edpio","url":"\/dashboard\/details-assets\/fcaaa670-8dcc-4fa8-a918-a9f113d818ca"},"geometry":{"type":"Point","coordinates":[-48.649996,-27.026456]}},{"type":"Feature","properties":{"municipio":"be5b7635-d84a-45be-bd86-65cf42b509e0","title":"SC - CACADOR","name":"SC - CACADOR","tipo":"Munic\u00edpio","url":"\/dashboard\/details-assets\/be5b7635-d84a-45be-bd86-65cf42b509e0"},"geometry":{"type":"Point","coordinates":[-51.019035,-26.775348]}},{"type":"Feature","properties":{"municipio":"c9f012cf-bb76-442c-8a8e-bd987275fedf","title":"SC - BRUSQUE","name":"SC - BRUSQUE","tipo":"Munic\u00edpio","url":"\/dashboard\/details-assets\/c9f012cf-bb76-442c-8a8e-bd987275fedf"},"geometry":{"type":"Point","coordinates":[-48.915163,-27.09831]}},{"type":"Feature","properties":{"municipio":"dba06f50-91f1-4507-8e09-1a5d275b9eb5","title":"SC - BRACO DO NORTE","name":"SC - BRACO DO NORTE","tipo":"Munic\u00edpio","url":"\/dashboard\/details-assets\/dba06f50-91f1-4507-8e09-1a5d275b9eb5"},"geometry":{"type":"Point","coordinates":[-49.164548,-28.280039]}},{"type":"Feature","properties":{"municipio":"6411f8a8-e035-4a48-92bd-bcad86c45798","title":"SC - BLUMENAU","name":"SC - BLUMENAU","tipo":"Munic\u00edpio","url":"\/dashboard\/details-assets\/6411f8a8-e035-4a48-92bd-bcad86c45798"},"geometry":{"type":"Point","coordinates":[-49.057631,-26.916108]}},{"type":"Feature","properties":{"municipio":"6e3ccd01-206d-479a-bbfc-734349d3a55e","title":"SC - BIGUACU","name":"SC - BIGUACU","tipo":"Munic\u00edpio","url":"\/dashboard\/details-assets\/6e3ccd01-206d-479a-bbfc-734349d3a55e"},"geometry":{"type":"Point","coordinates":[-48.654489,-27.494323]}},{"type":"Feature","properties":{"municipio":"878984d4-e032-4154-9203-72b3ec91271c","title":"SC - BALNEARIO CAMBORIU","name":"SC - BALNEARIO CAMBORIU","tipo":"Munic\u00edpio","url":"\/dashboard\/details-assets\/878984d4-e032-4154-9203-72b3ec91271c"},"geometry":{"type":"Point","coordinates":[-48.634617,-26.991819]}},{"type":"Feature","properties":{"municipio":"85f594fd-ce51-434a-a98e-837fcc8a6ebf","title":"SC - ARARANGUA","name":"SC - ARARANGUA","tipo":"Munic\u00edpio","url":"\/dashboard\/details-assets\/85f594fd-ce51-434a-a98e-837fcc8a6ebf"},"geometry":{"type":"Point","coordinates":[-49.492301,-28.936119]}},{"type":"Feature","properties":{"municipio":"7e16d937-61d5-48f8-a952-7c097deaabfc","title":"RS - VIAMAO","name":"RS - VIAMAO","tipo":"Munic\u00edpio","url":"\/dashboard\/details-assets\/7e16d937-61d5-48f8-a952-7c097deaabfc"},"geometry":{"type":"Point","coordinates":[-51.098978,-30.065259]}},{"type":"Feature","properties":{"municipio":"fbdaacc9-f2f8-4792-8cb7-5dbf3bee8901","title":"RS - VERANOPOLIS","name":"RS - VERANOPOLIS","tipo":"Munic\u00edpio","url":"\/dashboard\/details-assets\/fbdaacc9-f2f8-4792-8cb7-5dbf3bee8901"},"geometry":{"type":"Point","coordinates":[-51.552287,-28.933957]}},